{
"type": "FeatureCollection",
"features": [
{ "type": "Feature", "properties": { "PARK_NAME": "Wilsons Promontory National Park", "PARK_ID": 3308.0, "SITE_NAME": "Lower Barry Creek, Wilsons Promontory National Park", "ASSET_DESC": "Lower Barry Creek Campground", "ASSET_OWNE": "DELWP", "HERITAGE_V": "No", "MGA_ZONE": "55", "MGA_EASTIN": 444857.0, "MGA_NORTHI": 5696606.0 }, "geometry": { "type": "Point", "coordinates": [ 146.364280146000056, -38.87767315100001 ] } },
{ "type": "Feature", "properties": { "PARK_NAME": "Alpine National Park", "PARK_ID": 3319.0, "SITE_NAME": "Anglers Rest Camping Area, Alpine National Park", "ASSET_DESC": "Anglers Rest Campground", "ASSET_OWNE": "DELWP", "HERITAGE_V": "No", "MGA_ZONE": "55", "MGA_EASTIN": 543694.0, "MGA_NORTHI": 5906257.0 }, "geometry": { "type": "Point", "coordinates": [ 147.491002080000044, -36.98880399 ] } },
{ "type": "Feature", "properties": { "PARK_NAME": "Alpine National Park", "PARK_ID": 3319.0, "SITE_NAME": "Taylors Crossing Camp Area, Alpine National Park", "ASSET_DESC": "Taylors Crossing Camping Area", "ASSET_OWNE": "DELWP", "HERITAGE_V": "No", "MGA_ZONE": "55", "MGA_EASTIN": 558854.0, "MGA_NORTHI": 5924202.0 }, "geometry": { "type": "Point", "coordinates": [ 147.659955839999952, -36.82622097 ] } },
{ "type": "Feature", "properties": { "PARK_NAME": "Grampians National Park", "PARK_ID": 3316.0, "SITE_NAME": "Boreang Campground, Grampians National Park", "ASSET_DESC": "Boreang Campground designated sites", "ASSET_OWNE": "DELWP", "HERITAGE_V": "No", "MGA_ZONE": "54", "MGA_EASTIN": 625921.0, "MGA_NORTHI": 5884773.0 }, "geometry": { "type": "Point", "coordinates": [ 142.418441160000043, -37.17499203 ] } },
{ "type": "Feature", "properties": { "PARK_NAME": "Alpine National Park", "PARK_ID": 3319.0, "SITE_NAME": "Fitzgeralds Hut Camping Area, Alpine National Park", "ASSET_DESC": "Fitzgeralds Hut Camping Area", "ASSET_OWNE": "DELWP", "HERITAGE_V": "No", "MGA_ZONE": "55", "MGA_EASTIN": 532381.0, "MGA_NORTHI": 5918555.0 }, "geometry": { "type": "Point", "coordinates": [ 147.363351119999948, -36.878402970000025 ] } },
{ "type": "Feature", "properties": { "PARK_NAME": "Alpine National Park", "PARK_ID": 3319.0, "SITE_NAME": "Bennies Camping Area, Alpine National Park", "ASSET_DESC": "Bennies Campground No 2", "ASSET_OWNE": "DELWP", "HERITAGE_V": "No", "MGA_ZONE": "55", "MGA_EASTIN": 458706.0, "MGA_NORTHI": 5908774.0 }, "geometry": { "type": "Point", "coordinates": [ 146.536103880000041, -36.96622398 ] } },
{ "type": "Feature", "properties": { "PARK_NAME": "Baw Baw National Park", "PARK_ID": 3312.0, "SITE_NAME": "Aberfeldy Bridge, Baw Baw National Park", "ASSET_DESC": "Aberfeldy Bridge Camp Ground", "ASSET_OWNE": "DELWP", "HERITAGE_V": "No", "MGA_ZONE": "55", "MGA_EASTIN": 450018.0, "MGA_NORTHI": 5810309.0 }, "geometry": { "type": "Point", "coordinates": [ 146.43184392, -37.853303040000014 ] } },
{ "type": "Feature", "properties": { "PARK_NAME": "Snowy River National Park", "PARK_ID": 3313.0, "SITE_NAME": "West Track Camping Ground, Snowy River National Park", "ASSET_DESC": "West Track Camp Ground", "ASSET_OWNE": "DELWP", "HERITAGE_V": "No", "MGA_ZONE": "55", "MGA_EASTIN": 615626.0, "MGA_NORTHI": 5855478.0 }, "geometry": { "type": "Point", "coordinates": [ 148.3070641199999, -37.440317970000024 ] } },
{ "type": "Feature", "properties": { "PARK_NAME": "Discovery Bay Coastal Park", "PARK_ID": 3360.0, "SITE_NAME": "Trewalla Camp, Discovery Bay Coastal Park", "ASSET_DESC": "Trewalla Campsite", "ASSET_OWNE": "DELWP", "HERITAGE_V": "No", "MGA_ZONE": "54", "MGA_EASTIN": 539900.0, "MGA_NORTHI": 5754100.0 }, "geometry": { "type": "Point", "coordinates": [ 141.456697920000011, -38.36038104 ] } },
{ "type": "Feature", "properties": { "PARK_NAME": "Cape Liptrap Coastal Park", "PARK_ID": 3371.0, "SITE_NAME": "Bear Gully, Cape Liptrap Coastal Park", "ASSET_DESC": "Bear Gully Campground", "ASSET_OWNE": "DELWP", "HERITAGE_V": "No", "MGA_ZONE": "55", "MGA_EASTIN": 411586.0, "MGA_NORTHI": 5694592.0 }, "geometry": { "type": "Point", "coordinates": [ 145.980500040000038, -38.893102020000015 ] } },
{ "type": "Feature", "properties": { "PARK_NAME": "Mount Beckworth S.R.", "PARK_ID": 2724.0, "SITE_NAME": "Manna Gums Picnic Area, Mount Beckworth S.R.", "ASSET_DESC": "Manna Gums Picnic and Camping Area", "ASSET_OWNE": "DELWP", "HERITAGE_V": "No", "MGA_ZONE": "54", "MGA_EASTIN": 741075.0, "MGA_NORTHI": 5866589.0 }, "geometry": { "type": "Point", "coordinates": [ 143.720466839999972, -37.316106 ] } },
{ "type": "Feature", "properties": { "PARK_NAME": "Mount Beckworth S.R.", "PARK_ID": 2724.0, "SITE_NAME": "The Cork Oaks Picnic Area, Mount Beckworth S.R.", "ASSET_DESC": "The Cork Oaks Picnic and Camping Area", "ASSET_OWNE": "DELWP", "HERITAGE_V": "No", "MGA_ZONE": "54", "MGA_EASTIN": 740006.0, "MGA_NORTHI": 5867188.0 }, "geometry": { "type": "Point", "coordinates": [ 143.70822288, -37.310990039999979 ] } },
{ "type": "Feature", "properties": { "PARK_NAME": "McLoughlins Beach - Seaspray Coastal Reserve", "PARK_ID": 3197.0, "SITE_NAME": "Reeves Beach, McLoughlins Beach - Seaspray Coastal Reserve", "ASSET_DESC": "Reeves Beach Camping Area", "ASSET_OWNE": "DELWP", "HERITAGE_V": "No", "MGA_ZONE": "55", "MGA_EASTIN": 496010.0, "MGA_NORTHI": 5730572.0 }, "geometry": { "type": "Point", "coordinates": [ 146.954196, -38.57329998 ] } },
{ "type": "Feature", "properties": { "PARK_NAME": "Mount Arapiles-Tooan State Park", "PARK_ID": 3342.0, "SITE_NAME": "Centenary Park, Mount Arapiles-Tooan State Park", "ASSET_DESC": "Centenary Camping Area", "ASSET_OWNE": "DELWP", "HERITAGE_V": "No", "MGA_ZONE": "54", "MGA_EASTIN": 575800.0, "MGA_NORTHI": 5931350.0 }, "geometry": { "type": "Point", "coordinates": [ 141.849250324999957, -36.760584677 ] } },
{ "type": "Feature", "properties": { "PARK_NAME": "Great Otway National Park", "PARK_ID": 4710.0, "SITE_NAME": null, "ASSET_DESC": "GOW Elliot Ridge Hike-in Campsite - Camp pad no. 4\r\n", "ASSET_OWNE": "DELWP", "HERITAGE_V": null, "MGA_ZONE": "54", "MGA_EASTIN": 726926.0, "MGA_NORTHI": 5703161.0 }, "geometry": { "type": "Point", "coordinates": [ 143.612779775000035, -38.791110107 ] } },
{ "type": "Feature", "properties": { "PARK_NAME": "Great Otway National Park", "PARK_ID": 4710.0, "SITE_NAME": null, "ASSET_DESC": "GOW Elliot Ridge Hike-in Campsite - Camp pad no. 6\r\n", "ASSET_OWNE": "DELWP", "HERITAGE_V": null, "MGA_ZONE": "54", "MGA_EASTIN": 726926.0, "MGA_NORTHI": 5703161.0 }, "geometry": { "type": "Point", "coordinates": [ 143.612779775000035, -38.791110107 ] } },
{ "type": "Feature", "properties": { "PARK_NAME": "Great Otway National Park", "PARK_ID": 4710.0, "SITE_NAME": null, "ASSET_DESC": "GOW Johanna Hike-in Campsite - Camp pad no. 7\r\n", "ASSET_OWNE": "DELWP", "HERITAGE_V": null, "MGA_ZONE": "54", "MGA_EASTIN": 705956.0, "MGA_NORTHI": 5707403.0 }, "geometry": { "type": "Point", "coordinates": [ 143.370272321000016, -38.758063470000025 ] } },
{ "type": "Feature", "properties": { "PARK_NAME": "Great Otway National Park", "PARK_ID": 4710.0, "SITE_NAME": null, "ASSET_DESC": "GOW Ryans Den Hike-in Campsite - Camp pad no. 5\r\n", "ASSET_OWNE": "DELWP", "HERITAGE_V": null, "MGA_ZONE": "54", "MGA_EASTIN": 697961.0, "MGA_NORTHI": 5707422.0 }, "geometry": { "type": "Point", "coordinates": [ 143.278324333, -38.759721679999984 ] } },
{ "type": "Feature", "properties": { "PARK_NAME": "Great Otway National Park", "PARK_ID": 4710.0, "SITE_NAME": null, "ASSET_DESC": "GOW Ryans Den Hike-in Campsite - Camp pad no. 7\r\n", "ASSET_OWNE": "DELWP", "HERITAGE_V": null, "MGA_ZONE": "54", "MGA_EASTIN": 697937.0, "MGA_NORTHI": 5707391.0 }, "geometry": { "type": "Point", "coordinates": [ 143.278057200000035, -38.760006205000025 ] } },
{ "type": "Feature", "properties": { "PARK_NAME": "Great Otway National Park", "PARK_ID": 4710.0, "SITE_NAME": null, "ASSET_DESC": "GOW Elliot Ridge Hike-in Campsite - Camp pad no. 2\r\n", "ASSET_OWNE": "DELWP", "HERITAGE_V": null, "MGA_ZONE": "54", "MGA_EASTIN": 726926.0, "MGA_NORTHI": 5703192.0 }, "geometry": { "type": "Point", "coordinates": [ 143.612769580999952, -38.790831035999986 ] } },
{ "type": "Feature", "properties": { "PARK_NAME": "Great Otway National Park", "PARK_ID": 4710.0, "SITE_NAME": null, "ASSET_DESC": "GOW Ryans Den Hike-in Campsite - Camp pad no. 6\r\n", "ASSET_OWNE": "DELWP", "HERITAGE_V": null, "MGA_ZONE": "54", "MGA_EASTIN": 697960.0, "MGA_NORTHI": 5707391.0 }, "geometry": { "type": "Point", "coordinates": [ 143.278321712999968, -38.760001047 ] } },
{ "type": "Feature", "properties": { "PARK_NAME": "Port Campbell Recreation and Camping Reserve", "PARK_ID": 4809.0, "SITE_NAME": "Port Campbell precinct, Port Campbell Coastal Reserve", "ASSET_DESC": "Port Campbell - Caravan Park", "ASSET_OWNE": "DELWP", "HERITAGE_V": "No", "MGA_ZONE": "54", "MGA_EASTIN": 673646.0, "MGA_NORTHI": 5723723.0 }, "geometry": { "type": "Point", "coordinates": [ 142.994571120000046, -38.618028 ] } },
{ "type": "Feature", "properties": { "PARK_NAME": "Wilsons Promontory National Park", "PARK_ID": 3308.0, "SITE_NAME": "Sealers Cove, Wilsons Promontory National Park", "ASSET_DESC": "Sealers Cove Campground", "ASSET_OWNE": "DELWP", "HERITAGE_V": "No", "MGA_ZONE": "55", "MGA_EASTIN": 451838.0, "MGA_NORTHI": 5680640.0 }, "geometry": { "type": "Point", "coordinates": [ 146.443633713000054, -39.021953305000011 ] } },
{ "type": "Feature", "properties": { "PARK_NAME": "Castlemaine Diggings National Heritage Park", "PARK_ID": 4659.0, "SITE_NAME": "Vaughan Spring, Castlemaine Diggings National Heritage Park", "ASSET_DESC": "Upper Terrace Camping Ground at Vaughan Springs in CDNHP", "ASSET_OWNE": "DELWP", "HERITAGE_V": "No", "MGA_ZONE": "55", "MGA_EASTIN": 252837.0, "MGA_NORTHI": 5883450.0 }, "geometry": { "type": "Point", "coordinates": [ 144.216497160000017, -37.162701 ] } },
{ "type": "Feature", "properties": { "PARK_NAME": "Lerderderg State Park", "PARK_ID": 3339.0, "SITE_NAME": "O'Briens Crossing, Lerderderg State Park", "ASSET_DESC": "OBriens Crossing Campground & Picnic Area", "ASSET_OWNE": "DELWP", "HERITAGE_V": "No", "MGA_ZONE": "55", "MGA_EASTIN": 266725.0, "MGA_NORTHI": 5846827.0 }, "geometry": { "type": "Point", "coordinates": [ 144.361229040000012, -37.496039040000028 ] } },
{ "type": "Feature", "properties": { "PARK_NAME": "Lower Glenelg National Park", "PARK_ID": 3300.0, "SITE_NAME": "Lasletts, Lower Glenelg National Park", "ASSET_DESC": "Lasletts Canoe Camp", "ASSET_OWNE": "DELWP", "HERITAGE_V": "No", "MGA_ZONE": "54", "MGA_EASTIN": 501398.0, "MGA_NORTHI": 5794899.0 }, "geometry": { "type": "Point", "coordinates": [ 141.015921643999945, -37.993563527999981 ] } },
{ "type": "Feature", "properties": { "PARK_NAME": "Alpine National Park", "PARK_ID": 3319.0, "SITE_NAME": null, "ASSET_DESC": "The Windfall Camping and Picnic Area\r\nOther Visitor Site\r\nPark Name is Alpine National Park", "ASSET_OWNE": "DELWP", "HERITAGE_V": "Yes", "MGA_ZONE": "55", "MGA_EASTIN": 568380.0, "MGA_NORTHI": 5948130.0 }, "geometry": { "type": "Point", "coordinates": [ 147.76462615299999, -36.609892362999972 ] } },
{ "type": "Feature", "properties": { "PARK_NAME": "Alpine National Park", "PARK_ID": 3319.0, "SITE_NAME": "Quart Pot Flat Hut & Camping Area, Alpine National Park", "ASSET_DESC": "Quart Pot Flat Campground", "ASSET_OWNE": "DELWP", "HERITAGE_V": "No", "MGA_ZONE": "55", "MGA_EASTIN": 554290.0, "MGA_NORTHI": 5935173.0 }, "geometry": { "type": "Point", "coordinates": [ 147.60799884000005, -36.727598969999974 ] } },
{ "type": "Feature", "properties": { "PARK_NAME": "Alpine National Park", "PARK_ID": 3319.0, "SITE_NAME": null, "ASSET_DESC": "Surveyors Creek camping and picnic area\r\n", "ASSET_OWNE": "DELWP", "HERITAGE_V": "No", "MGA_ZONE": "55", "MGA_EASTIN": 597400.0, "MGA_NORTHI": 5967400.0 }, "geometry": { "type": "Point", "coordinates": [ 148.086651217000053, -36.433677994999982 ] } },
{ "type": "Feature", "properties": { "PARK_NAME": "Mitchell River National Park", "PARK_ID": 3295.0, "SITE_NAME": "Rock Creek, Mitchell River National Park", "ASSET_DESC": "Rock Creek camping area, Mitchell River National Park", "ASSET_OWNE": "DELWP", "HERITAGE_V": "No", "MGA_ZONE": "55", "MGA_EASTIN": 529565.0, "MGA_NORTHI": 5838281.0 }, "geometry": { "type": "Point", "coordinates": [ 147.3349388399999, -37.602078029999973 ] } },
{ "type": "Feature", "properties": { "PARK_NAME": "River Murray Reserve", "PARK_ID": 3284.0, "SITE_NAME": null, "ASSET_DESC": "Towong Frontage picnic area", "ASSET_OWNE": "DELWP", "HERITAGE_V": "No", "MGA_ZONE": "55", "MGA_EASTIN": 589500.0, "MGA_NORTHI": 6001930.0 }, "geometry": { "type": "Point", "coordinates": [ 147.994570047000025, -36.123188823000021 ] } },
{ "type": "Feature", "properties": { "PARK_NAME": "River Murray Reserve", "PARK_ID": 3284.0, "SITE_NAME": null, "ASSET_DESC": "Towong Bend camping and picnic area", "ASSET_OWNE": "DELWP", "HERITAGE_V": "No", "MGA_ZONE": "55", "MGA_EASTIN": 589900.0, "MGA_NORTHI": 6001690.0 }, "geometry": { "type": "Point", "coordinates": [ 147.999041860000034, -36.12531529 ] } },
{ "type": "Feature", "properties": { "PARK_NAME": "Snowy River National Park", "PARK_ID": 3313.0, "SITE_NAME": "_Not Attached to a Site", "ASSET_DESC": "Jackson Crossing Camp Ground", "ASSET_OWNE": "DELWP", "HERITAGE_V": "No", "MGA_ZONE": "55", "MGA_EASTIN": 618536.0, "MGA_NORTHI": 5861709.0 }, "geometry": { "type": "Point", "coordinates": [ 148.338951072999976, -37.383800451000013 ] } },
{ "type": "Feature", "properties": { "PARK_NAME": "River Murray Reserve", "PARK_ID": 3284.0, "SITE_NAME": "Bruces Bend, Yarrawonga R.P", "ASSET_DESC": "Bruces Number One campground at RMR", "ASSET_OWNE": "DELWP", "HERITAGE_V": "No", "MGA_ZONE": "55", "MGA_EASTIN": 402158.0, "MGA_NORTHI": 6019417.0 }, "geometry": { "type": "Point", "coordinates": [ 145.914909054999953, -35.964751117999981 ] } },
{ "type": "Feature", "properties": { "PARK_NAME": "Upper Yarra Reservoir Park", "PARK_ID": 4084.0, "SITE_NAME": "Visitors Area, Upper Yarra Reservoir Park", "ASSET_DESC": "Camping Area", "ASSET_OWNE": "Melbourne Water", "HERITAGE_V": "No", "MGA_ZONE": "55", "MGA_EASTIN": 402134.0, "MGA_NORTHI": 5830277.0 }, "geometry": { "type": "Point", "coordinates": [ 145.890299017999951, -37.66947661 ] } },
{ "type": "Feature", "properties": { "PARK_NAME": "Lower Glenelg National Park", "PARK_ID": 3300.0, "SITE_NAME": "Patterson Canoe Camp, Lower Glenelg National Park", "ASSET_DESC": "Pattersons Canoe & Walkers Camp", "ASSET_OWNE": "DELWP", "HERITAGE_V": "No", "MGA_ZONE": "54", "MGA_EASTIN": 505178.0, "MGA_NORTHI": 5793819.0 }, "geometry": { "type": "Point", "coordinates": [ 141.058979365000027, -38.003283752000016 ] } },
{ "type": "Feature", "properties": { "PARK_NAME": "River Murray Reserve", "PARK_ID": 3284.0, "SITE_NAME": null, "ASSET_DESC": "Lawson Frontage Picnic Area", "ASSET_OWNE": "DELWP", "HERITAGE_V": "No", "MGA_ZONE": "55", "MGA_EASTIN": 545990.0, "MGA_NORTHI": 6020270.0 }, "geometry": { "type": "Point", "coordinates": [ 147.510022549000041, -35.960882783999978 ] } },
{ "type": "Feature", "properties": { "PARK_NAME": "River Murray Reserve", "PARK_ID": 3284.0, "SITE_NAME": null, "ASSET_DESC": "Walwa Bend camping and picnic area", "ASSET_OWNE": "DELWP", "HERITAGE_V": "No", "MGA_ZONE": "55", "MGA_EASTIN": 569600.0, "MGA_NORTHI": 6019601.0 }, "geometry": { "type": "Point", "coordinates": [ 147.771895054999959, -35.965515665999988 ] } },
{ "type": "Feature", "properties": { "PARK_NAME": "Great Otway National Park", "PARK_ID": 4710.0, "SITE_NAME": null, "ASSET_DESC": "GOW Devils Kitchen - Camp pad no. 5\r\n", "ASSET_OWNE": "DELWP", "HERITAGE_V": null, "MGA_ZONE": "54", "MGA_EASTIN": 691606.0, "MGA_NORTHI": 5709304.0 }, "geometry": { "type": "Point", "coordinates": [ 143.204714491, -38.744176676999984 ] } },
{ "type": "Feature", "properties": { "PARK_NAME": "Great Otway National Park", "PARK_ID": 4710.0, "SITE_NAME": null, "ASSET_DESC": "GOW Ryans Den Hike-in Campsite - Camp pad no. 1\r\n", "ASSET_OWNE": "DELWP", "HERITAGE_V": null, "MGA_ZONE": "54", "MGA_EASTIN": 697890.0, "MGA_NORTHI": 5707455.0 }, "geometry": { "type": "Point", "coordinates": [ 143.27749834799999, -38.75944045 ] } },
{ "type": "Feature", "properties": { "PARK_NAME": "Great Otway National Park", "PARK_ID": 4710.0, "SITE_NAME": "Lake Elizabeth, Great Otway National Park", "ASSET_DESC": "Lake Elizabeth campground\r\n", "ASSET_OWNE": "DELWP", "HERITAGE_V": "No", "MGA_ZONE": "54", "MGA_EASTIN": 739193.0, "MGA_NORTHI": 5729545.0 }, "geometry": { "type": "Point", "coordinates": [ 143.74478201, -38.550373182999977 ] } },
{ "type": "Feature", "properties": { "PARK_NAME": "Great Otway National Park", "PARK_ID": 4710.0, "SITE_NAME": null, "ASSET_DESC": "GOW Elliot Ridge Hike-in Campsite - Camp pad no. 5\r\n", "ASSET_OWNE": "DELWP", "HERITAGE_V": null, "MGA_ZONE": "54", "MGA_EASTIN": 726950.0, "MGA_NORTHI": 5703160.0 }, "geometry": { "type": "Point", "coordinates": [ 143.613056167999957, -38.791112933000022 ] } },
{ "type": "Feature", "properties": { "PARK_NAME": "Cape Conran Coastal Park", "PARK_ID": 3359.0, "SITE_NAME": "Banksia Bluff Campground, Cape Conran Coastal Park", "ASSET_DESC": "Banksia Bluff Camp Area - siites A-F at \r\nCape Conran Coastal Park .", "ASSET_OWNE": "DELWP", "HERITAGE_V": "No", "MGA_ZONE": "55", "MGA_EASTIN": 653421.0, "MGA_NORTHI": 5815209.0 }, "geometry": { "type": "Point", "coordinates": [ 148.74259925399997, -37.797619457 ] } },
{ "type": "Feature", "properties": { "PARK_NAME": "Alpine National Park", "PARK_ID": 3319.0, "SITE_NAME": null, "ASSET_DESC": "Native Dog Camping area Access Track\r\n", "ASSET_OWNE": "DELWP", "HERITAGE_V": null, "MGA_ZONE": "55", "MGA_EASTIN": 597099.0, "MGA_NORTHI": 5916074.0 }, "geometry": { "type": "Point", "coordinates": [ 148.089797102000034, -36.896325827 ] } },
{ "type": "Feature", "properties": { "PARK_NAME": "Alpine National Park", "PARK_ID": 3319.0, "SITE_NAME": "Cope Hut, Alpine National Park", "ASSET_DESC": "Tent platform - 4 at Falls to Hotham Alpine Crossing Cope Hut with 3.7m x 3m steel structure with FRP grating deck\r\n", "ASSET_OWNE": null, "HERITAGE_V": null, "MGA_ZONE": "55", "MGA_EASTIN": 526100.0, "MGA_NORTHI": 5915300.0 }, "geometry": { "type": "Point", "coordinates": [ 147.292984109000031, -36.907939915999975 ] } },
{ "type": "Feature", "properties": { "PARK_NAME": "Alpine National Park", "PARK_ID": 3319.0, "SITE_NAME": "Dibbin Hut Camping Area, Alpine National Park", "ASSET_DESC": "Tent platform - 3 at Falls to Hotham Alpine Crossing Dibbins Hut camping area with 3.7m x 3m steel structure with FRP grating deck\r\n", "ASSET_OWNE": null, "HERITAGE_V": null, "MGA_ZONE": "55", "MGA_EASTIN": 516300.0, "MGA_NORTHI": 5910800.0 }, "geometry": { "type": "Point", "coordinates": [ 147.183072388000028, -36.94872548799998 ] } },
{ "type": "Feature", "properties": { "PARK_NAME": "Wilsons Promontory National Park", "PARK_ID": 3308.0, "SITE_NAME": "Little Waterloo Bay, Wilsons Promontory National Park", "ASSET_DESC": "Little Waterloo Bay Campground", "ASSET_OWNE": "DELWP", "HERITAGE_V": "No", "MGA_ZONE": "55", "MGA_EASTIN": 450695.0, "MGA_NORTHI": 5675842.0 }, "geometry": { "type": "Point", "coordinates": [ 146.430083126, -39.065123611999979 ] } },
{ "type": "Feature", "properties": { "PARK_NAME": "Lake Albacutya Park", "PARK_ID": 3364.0, "SITE_NAME": "Yaapeet Beach, Lake Albacutya Park", "ASSET_DESC": "Camping Grounds, Designated Sites, Yaapeet Beach - Lake Albacutya Park", "ASSET_OWNE": "DELWP", "HERITAGE_V": "No", "MGA_ZONE": "54", "MGA_EASTIN": 590991.0, "MGA_NORTHI": 6041459.0 }, "geometry": { "type": "Point", "coordinates": [ 142.00660657200001, -35.766710995999972 ] } },
{ "type": "Feature", "properties": { "PARK_NAME": "Ewing Morass W.R", "PARK_ID": 456.0, "SITE_NAME": "Trident Arm Camping Area, Lake Tyers S.P.", "ASSET_DESC": "Camping Area at Trident Arm -  Lake Tyers S.P.\r\n", "ASSET_OWNE": null, "HERITAGE_V": null, "MGA_ZONE": "55", "MGA_EASTIN": 604456.0, "MGA_NORTHI": 5812469.0 }, "geometry": { "type": "Point", "coordinates": [ 148.186969913999974, -37.829224861 ] } },
{ "type": "Feature", "properties": { "PARK_NAME": "Barmah National Park", "PARK_ID": 4882.0, "SITE_NAME": null, "ASSET_DESC": "Camping Ground - The Gulf - Barmah National Park", "ASSET_OWNE": "Parks Victoria", "HERITAGE_V": null, "MGA_ZONE": "55", "MGA_EASTIN": 333081.0, "MGA_NORTHI": 6032004.0 }, "geometry": { "type": "Point", "coordinates": [ 145.151753245, -35.841955489999975 ] } },
{ "type": "Feature", "properties": { "PARK_NAME": "Marlo Coastal Reserve", "PARK_ID": 3199.0, "SITE_NAME": "Corringle Slips, Marlo Coastal Reserve", "ASSET_DESC": "Corringle Slips Camp Ground at Corringle Foreshore Reserve", "ASSET_OWNE": "DELWP", "HERITAGE_V": "No", "MGA_ZONE": "55", "MGA_EASTIN": 633800.0, "MGA_NORTHI": 5815370.0 }, "geometry": { "type": "Point", "coordinates": [ 148.519785961000025, -37.799254272999974 ] } },
{ "type": "Feature", "properties": { "PARK_NAME": "Murray - Sunset National Park", "PARK_ID": 3320.0, "SITE_NAME": "Underbool Track campground, Murray - Sunset National Park", "ASSET_DESC": "Designated Site, Mopoke Hut Camping area - Murray-Sunset NP", "ASSET_OWNE": "Parks Victoria", "HERITAGE_V": "No", "MGA_ZONE": "54", "MGA_EASTIN": 569473.0, "MGA_NORTHI": 6147593.0 }, "geometry": { "type": "Point", "coordinates": [ 141.759588871, -34.81154182 ] } },
{ "type": "Feature", "properties": { "PARK_NAME": "Tallangatta Creek K11 SS.R", "PARK_ID": 3005.0, "SITE_NAME": null, "ASSET_DESC": "Tallangatta Creek K11 picnic area", "ASSET_OWNE": "DELWP", "HERITAGE_V": "No", "MGA_ZONE": "55", "MGA_EASTIN": 541260.0, "MGA_NORTHI": 5974850.0 }, "geometry": { "type": "Point", "coordinates": [ 147.459955313000023, -36.37057390199999 ] } },
{ "type": "Feature", "properties": { "PARK_NAME": "Echuca R.P", "PARK_ID": 3232.0, "SITE_NAME": "Christies Beach Camping Area, Echuca R.P", "ASSET_DESC": "Christies Beach Campground", "ASSET_OWNE": "DELWP", "HERITAGE_V": "No", "MGA_ZONE": "55", "MGA_EASTIN": 302889.0, "MGA_NORTHI": 6002406.0 }, "geometry": { "type": "Point", "coordinates": [ 144.810291959999972, -36.10301103 ] } },
{ "type": "Feature", "properties": { "PARK_NAME": "Cape Liptrap Coastal Park", "PARK_ID": 3371.0, "SITE_NAME": "Five Mile Road, Cape Liptrap Coastal Park", "ASSET_DESC": "Five Mile Road Camping Area", "ASSET_OWNE": "DELWP", "HERITAGE_V": "No", "MGA_ZONE": "55", "MGA_EASTIN": 403170.0, "MGA_NORTHI": 5704782.0 }, "geometry": { "type": "Point", "coordinates": [ 145.884906, -38.800404 ] } },
{ "type": "Feature", "properties": { "PARK_NAME": "Alpine National Park", "PARK_ID": 3319.0, "SITE_NAME": "Cowombat Flat, Alpine National Park", "ASSET_DESC": "Cowombat Flat (dispersed camping area)", "ASSET_OWNE": "DELWP", "HERITAGE_V": "No", "MGA_ZONE": "55", "MGA_EASTIN": 604382.0, "MGA_NORTHI": 5927201.0 }, "geometry": { "type": "Point", "coordinates": [ 148.169994119999956, -36.79526304 ] } },
{ "type": "Feature", "properties": { "PARK_NAME": "Murray - Sunset National Park", "PARK_ID": 3320.0, "SITE_NAME": "Rocket Lake campground, Murray - Sunset National Park", "ASSET_DESC": "Camping Grounds, Designated Sites, Rocket Lake Campground, Murray Sunset National Park", "ASSET_OWNE": "DELWP", "HERITAGE_V": "No", "MGA_ZONE": "54", "MGA_EASTIN": 576225.0, "MGA_NORTHI": 6166756.0 }, "geometry": { "type": "Point", "coordinates": [ 141.83167284000001, -34.63826796 ] } },
{ "type": "Feature", "properties": { "PARK_NAME": "Grampians National Park", "PARK_ID": 3316.0, "SITE_NAME": "Strachans Campground, Grampians National Park", "ASSET_DESC": "Designated sites at Strachans Campground", "ASSET_OWNE": "DELWP", "HERITAGE_V": "No", "MGA_ZONE": "54", "MGA_EASTIN": 613516.0, "MGA_NORTHI": 5862639.0 }, "geometry": { "type": "Point", "coordinates": [ 142.282117080000035, -37.37604798000001 ] } },
{ "type": "Feature", "properties": { "PARK_NAME": "Alpine National Park", "PARK_ID": 3319.0, "SITE_NAME": "Sandy Flat, Alpine National Park", "ASSET_DESC": "Sandy Flat Campground", "ASSET_OWNE": "DELWP", "HERITAGE_V": "No", "MGA_ZONE": "55", "MGA_EASTIN": 449126.0, "MGA_NORTHI": 5911432.0 }, "geometry": { "type": "Point", "coordinates": [ 146.42866584, -36.941795010000021 ] } },
{ "type": "Feature", "properties": { "PARK_NAME": "Alpine National Park", "PARK_ID": 3319.0, "SITE_NAME": "Cleve Cole Hut Camping Area, Alpine National Park", "ASSET_DESC": "Cleve Cole Camping Area", "ASSET_OWNE": "DELWP", "HERITAGE_V": "No", "MGA_ZONE": "55", "MGA_EASTIN": 529100.0, "MGA_NORTHI": 5931900.0 }, "geometry": { "type": "Point", "coordinates": [ 147.326024159999974, -36.758211029999984 ] } },
{ "type": "Feature", "properties": { "PARK_NAME": "Snowy River National Park", "PARK_ID": 3313.0, "SITE_NAME": "White Box, Snowy River National Park", "ASSET_DESC": "White Box Campground", "ASSET_OWNE": "DELWP", "HERITAGE_V": "No", "MGA_ZONE": "55", "MGA_EASTIN": 625731.0, "MGA_NORTHI": 5895183.0 }, "geometry": { "type": "Point", "coordinates": [ 148.414554, -37.081207979999988 ] } },
{ "type": "Feature", "properties": { "PARK_NAME": "Mount Buffalo National Park", "PARK_ID": 3303.0, "SITE_NAME": "Mount Mcleod Camping Area, Mount Buffalo National Park", "ASSET_DESC": "Mt McLeod Remote Campground", "ASSET_OWNE": "DELWP", "HERITAGE_V": "No", "MGA_ZONE": "55", "MGA_EASTIN": 480704.0, "MGA_NORTHI": 5939328.0 }, "geometry": { "type": "Point", "coordinates": [ 146.784002040000018, -36.69149898 ] } },
{ "type": "Feature", "properties": { "PARK_NAME": "Mount Beckworth S.R.", "PARK_ID": 2724.0, "SITE_NAME": "The Dam Picnic Area, Mount Beckworth S.R.", "ASSET_DESC": "The Dam Picnic Area", "ASSET_OWNE": "DELWP", "HERITAGE_V": "No", "MGA_ZONE": "54", "MGA_EASTIN": 741504.0, "MGA_NORTHI": 5867772.0 }, "geometry": { "type": "Point", "coordinates": [ 143.724918959999968, -37.305343979999975 ] } },
{ "type": "Feature", "properties": { "PARK_NAME": "Alpine National Park", "PARK_ID": 3319.0, "SITE_NAME": "Pineapple Flat Camping Area, Alpine National Park", "ASSET_DESC": "Pineapple Flat Campground", "ASSET_OWNE": "DELWP", "HERITAGE_V": "No", "MGA_ZONE": "55", "MGA_EASTIN": 455458.0, "MGA_NORTHI": 5897656.0 }, "geometry": { "type": "Point", "coordinates": [ 146.498960160000024, -37.06629399000002 ] } },
{ "type": "Feature", "properties": { "PARK_NAME": "Alpine National Park", "PARK_ID": 3319.0, "SITE_NAME": "Mile Flat Camping Area, Alpine National Park", "ASSET_DESC": "Camping 8 Mile Flat", "ASSET_OWNE": "DELWP", "HERITAGE_V": "No", "MGA_ZONE": "55", "MGA_EASTIN": 449392.0, "MGA_NORTHI": 5882774.0 }, "geometry": { "type": "Point", "coordinates": [ 146.429722080000033, -37.200129030000028 ] } },
{ "type": "Feature", "properties": { "PARK_NAME": "Great Otway National Park", "PARK_ID": 4710.0, "SITE_NAME": null, "ASSET_DESC": "GOW Aire River Hike-in campsite - Camp pad no. 8\r\n", "ASSET_OWNE": "DELWP", "HERITAGE_V": null, "MGA_ZONE": "54", "MGA_EASTIN": 715048.0, "MGA_NORTHI": 5702380.0 }, "geometry": { "type": "Point", "coordinates": [ 143.476384422000024, -38.801118804999987 ] } },
{ "type": "Feature", "properties": { "PARK_NAME": "Great Otway National Park", "PARK_ID": 4710.0, "SITE_NAME": "Blanket Bay, Great Otway National Park", "ASSET_DESC": "GOW Blanket Bay Hike-in Campsite - Camp pad no. 2\r\n", "ASSET_OWNE": "DELWP", "HERITAGE_V": null, "MGA_ZONE": "54", "MGA_EASTIN": 724137.0, "MGA_NORTHI": 5699352.0 }, "geometry": { "type": "Point", "coordinates": [ 143.581936563999989, -38.826113964 ] } },
{ "type": "Feature", "properties": { "PARK_NAME": "Great Otway National Park", "PARK_ID": 4710.0, "SITE_NAME": "Blanket Bay, Great Otway National Park", "ASSET_DESC": "GOW Blanket Bay Hike-in Campsite - Camp pad no. 8 w 3 stone steps\r\n", "ASSET_OWNE": "DELWP", "HERITAGE_V": null, "MGA_ZONE": "54", "MGA_EASTIN": 724160.0, "MGA_NORTHI": 5699320.0 }, "geometry": { "type": "Point", "coordinates": [ 143.58221167399995, -38.82639618799999 ] } },
{ "type": "Feature", "properties": { "PARK_NAME": "Great Otway National Park", "PARK_ID": 4710.0, "SITE_NAME": null, "ASSET_DESC": "GOW Johanna Hike-in Campsite - Camp pad no. 4\r\n", "ASSET_OWNE": "DELWP", "HERITAGE_V": null, "MGA_ZONE": "54", "MGA_EASTIN": 705958.0, "MGA_NORTHI": 5707465.0 }, "geometry": { "type": "Point", "coordinates": [ 143.370276844000045, -38.757504756 ] } },
{ "type": "Feature", "properties": { "PARK_NAME": "Mount Lawson State Park", "PARK_ID": 3344.0, "SITE_NAME": null, "ASSET_DESC": "Conic Range picnic area\r\n", "ASSET_OWNE": "DELWP", "HERITAGE_V": "No", "MGA_ZONE": "55", "MGA_EASTIN": 537380.0, "MGA_NORTHI": 6002540.0 }, "geometry": { "type": "Point", "coordinates": [ 147.415380077, -36.121097968000015 ] } },
{ "type": "Feature", "properties": { "PARK_NAME": "Grampians National Park", "PARK_ID": 3316.0, "SITE_NAME": "Buandik, Grampians National Park", "ASSET_DESC": "Buandik Campground designated sites", "ASSET_OWNE": "DELWP", "HERITAGE_V": "No", "MGA_ZONE": "54", "MGA_EASTIN": 613390.0, "MGA_NORTHI": 5876371.0 }, "geometry": { "type": "Point", "coordinates": [ 142.278595920000043, -37.25231499 ] } },
{ "type": "Feature", "properties": { "PARK_NAME": "Lake Eildon National Park", "PARK_ID": 3294.0, "SITE_NAME": "Lakeside, Lake Eildon National Park", "ASSET_DESC": "Lakeside Camping Ground", "ASSET_OWNE": "DELWP", "HERITAGE_V": "No", "MGA_ZONE": "55", "MGA_EASTIN": 398890.0, "MGA_NORTHI": 5884787.0 }, "geometry": { "type": "Point", "coordinates": [ 145.860989040000049, -37.17788103 ] } },
{ "type": "Feature", "properties": { "PARK_NAME": "Wilsons Promontory National Park", "PARK_ID": 3308.0, "SITE_NAME": "Halfway Hut, Wilsons Promontory National Park", "ASSET_DESC": "Halfway Hut Campground", "ASSET_OWNE": "DELWP", "HERITAGE_V": "No", "MGA_ZONE": "55", "MGA_EASTIN": 446737.0, "MGA_NORTHI": 5673657.0 }, "geometry": { "type": "Point", "coordinates": [ 146.38416408, -39.084579 ] } },
{ "type": "Feature", "properties": { "PARK_NAME": "Lower Glenelg National Park", "PARK_ID": 3300.0, "SITE_NAME": "Bowds, Lower Glenelg National Park", "ASSET_DESC": "Bowds Campground", "ASSET_OWNE": "DELWP", "HERITAGE_V": "No", "MGA_ZONE": "54", "MGA_EASTIN": 507488.0, "MGA_NORTHI": 5793161.0 }, "geometry": { "type": "Point", "coordinates": [ 141.085298159999979, -38.00919798000001 ] } },
{ "type": "Feature", "properties": { "PARK_NAME": "Lower Glenelg National Park", "PARK_ID": 3300.0, "SITE_NAME": "Georges Rest, Lower Glenelg National Park", "ASSET_DESC": "Georges Rest Canoe Camp", "ASSET_OWNE": "DELWP", "HERITAGE_V": "No", "MGA_ZONE": "54", "MGA_EASTIN": 513893.0, "MGA_NORTHI": 5789351.0 }, "geometry": { "type": "Point", "coordinates": [ 141.158332080000037, -38.04346098000002 ] } },
{ "type": "Feature", "properties": { "PARK_NAME": "Lower Glenelg National Park", "PARK_ID": 3300.0, "SITE_NAME": "Sandy Waterholes, Lower Glenelg National Park", "ASSET_DESC": "Sandy Waterholes Picnic Area", "ASSET_OWNE": "DELWP", "HERITAGE_V": "No", "MGA_ZONE": "54", "MGA_EASTIN": 502114.0, "MGA_NORTHI": 5795154.0 }, "geometry": { "type": "Point", "coordinates": [ 141.02407512000002, -37.991264039999976 ] } },
{ "type": "Feature", "properties": { "PARK_NAME": "Discovery Bay Coastal Park", "PARK_ID": 3360.0, "SITE_NAME": "Swan Lake Camp, Discovery Bay Coastal Park", "ASSET_DESC": "Swan Lake Public Camp", "ASSET_OWNE": "DELWP", "HERITAGE_V": "No", "MGA_ZONE": "54", "MGA_EASTIN": 527308.0, "MGA_NORTHI": 5770238.0 }, "geometry": { "type": "Point", "coordinates": [ 141.31194912, -38.215413 ] } },
{ "type": "Feature", "properties": { "PARK_NAME": "Discovery Bay Coastal Park", "PARK_ID": 3360.0, "SITE_NAME": "Swan Lake Camp, Discovery Bay Coastal Park", "ASSET_DESC": "Swan Lake Dune Buggy Camp", "ASSET_OWNE": "DELWP", "HERITAGE_V": "No", "MGA_ZONE": "54", "MGA_EASTIN": 527308.0, "MGA_NORTHI": 5770238.0 }, "geometry": { "type": "Point", "coordinates": [ 141.31194912, -38.215413 ] } },
{ "type": "Feature", "properties": { "PARK_NAME": "Barmah National Park", "PARK_ID": 4882.0, "SITE_NAME": "Barmah Lakes, Proposed Murray River Park (part)", "ASSET_DESC": "Barmah Camp Ground 2", "ASSET_OWNE": "DELWP", "HERITAGE_V": "No", "MGA_ZONE": "55", "MGA_EASTIN": 315761.0, "MGA_NORTHI": 6018540.0 }, "geometry": { "type": "Point", "coordinates": [ 144.956961, -35.960168969999984 ] } },
{ "type": "Feature", "properties": { "PARK_NAME": "Brisbane Ranges National Park", "PARK_ID": 3288.0, "SITE_NAME": "Little River Picnic Area and Walk-in Camping Ground, Brisbane Ranges National Park", "ASSET_DESC": "Little River Camping Ground", "ASSET_OWNE": "DELWP", "HERITAGE_V": "No", "MGA_ZONE": "55", "MGA_EASTIN": 259534.0, "MGA_NORTHI": 5810969.0 }, "geometry": { "type": "Point", "coordinates": [ 144.268157159999987, -37.817030970000019 ] } },
{ "type": "Feature", "properties": { "PARK_NAME": "Alpine National Park", "PARK_ID": 3319.0, "SITE_NAME": "Buckety Plain Camping Area, Alpine National Park", "ASSET_DESC": "Buckety Plain Camp", "ASSET_OWNE": "DELWP", "HERITAGE_V": "No", "MGA_ZONE": "55", "MGA_EASTIN": 529080.0, "MGA_NORTHI": 5911700.0 }, "geometry": { "type": "Point", "coordinates": [ 147.326573879999955, -36.94030497 ] } },
{ "type": "Feature", "properties": { "PARK_NAME": "Howqua Hills H.A", "PARK_ID": 2923.0, "SITE_NAME": "Frys Flat, Howqua Hills H.A", "ASSET_DESC": "Frys Flat Campground and DVA", "ASSET_OWNE": "DELWP", "HERITAGE_V": "No", "MGA_ZONE": "55", "MGA_EASTIN": 440577.0, "MGA_NORTHI": 5883176.0 }, "geometry": { "type": "Point", "coordinates": [ 146.330427959999952, -37.195985969999981 ] } },
{ "type": "Feature", "properties": { "PARK_NAME": "Alpine National Park", "PARK_ID": 3319.0, "SITE_NAME": "Faithfull Hut, Alpine National Park", "ASSET_DESC": "Faithfull's Camping Ground", "ASSET_OWNE": "DELWP", "HERITAGE_V": "No", "MGA_ZONE": "55", "MGA_EASTIN": 529123.0, "MGA_NORTHI": 5912281.0 }, "geometry": { "type": "Point", "coordinates": [ 147.32703396, -36.93506598 ] } },
{ "type": "Feature", "properties": { "PARK_NAME": "Yarrawonga R.P", "PARK_ID": 3236.0, "SITE_NAME": "Forges Bend, Yarrawonga R.P", "ASSET_DESC": "Visitor Facilities - Camping Ground - - Forges No 1 Camping Ground.", "ASSET_OWNE": "DELWP", "HERITAGE_V": "No", "MGA_ZONE": "55", "MGA_EASTIN": 406661.0, "MGA_NORTHI": 6015911.0 }, "geometry": { "type": "Point", "coordinates": [ 145.964428017000046, -35.996797085000026 ] } },
{ "type": "Feature", "properties": { "PARK_NAME": "Alpine National Park", "PARK_ID": 3319.0, "SITE_NAME": "Bindaree Flat Camping Area, Alpine National Park", "ASSET_DESC": "Bindaree Flat Camping Area and DVA", "ASSET_OWNE": "DELWP", "HERITAGE_V": "No", "MGA_ZONE": "55", "MGA_EASTIN": 459473.0, "MGA_NORTHI": 5886503.0 }, "geometry": { "type": "Point", "coordinates": [ 146.54351916, -37.167009029999974 ] } },
{ "type": "Feature", "properties": { "PARK_NAME": "Bunyip State Park", "PARK_ID": 3329.0, "SITE_NAME": "Nash Creek Camping Area, Bunyip State Park", "ASSET_DESC": "Nash Creek Designated Camp Ground Sites", "ASSET_OWNE": "DELWP", "HERITAGE_V": "No", "MGA_ZONE": "55", "MGA_EASTIN": 384700.0, "MGA_NORTHI": 5799300.0 }, "geometry": { "type": "Point", "coordinates": [ 145.687727880000011, -37.94658003 ] } },
{ "type": "Feature", "properties": { "PARK_NAME": "Alpine National Park", "PARK_ID": 3319.0, "SITE_NAME": null, "ASSET_DESC": "Campbell's Yard Huts Camping", "ASSET_OWNE": "DELWP", "HERITAGE_V": "No", "MGA_ZONE": "55", "MGA_EASTIN": 523200.0, "MGA_NORTHI": 5912300.0 }, "geometry": { "type": "Point", "coordinates": [ 147.260522880000053, -36.93505896 ] } },
{ "type": "Feature", "properties": { "PARK_NAME": "River Murray Reserve", "PARK_ID": 3284.0, "SITE_NAME": null, "ASSET_DESC": "Greenhills Bend camping and picnic area", "ASSET_OWNE": "DELWP", "HERITAGE_V": "No", "MGA_ZONE": "55", "MGA_EASTIN": 579780.0, "MGA_NORTHI": 6015480.0 }, "geometry": { "type": "Point", "coordinates": [ 147.885199328999988, -36.001886762000026 ] } },
{ "type": "Feature", "properties": { "PARK_NAME": "Burrowa - Pine Mountain National Park", "PARK_ID": 3310.0, "SITE_NAME": "Pine Mountain Picnic Area, Burrowa - Pine Mountain National Park", "ASSET_DESC": "Pine Mountain trailhead\r\n", "ASSET_OWNE": "DELWP", "HERITAGE_V": "No", "MGA_ZONE": "55", "MGA_EASTIN": 570760.0, "MGA_NORTHI": 6015490.0 }, "geometry": { "type": "Point", "coordinates": [ 147.785125971999946, -36.002493387000015 ] } },
{ "type": "Feature", "properties": { "PARK_NAME": "River Murray Reserve", "PARK_ID": 3284.0, "SITE_NAME": null, "ASSET_DESC": "Gadds Bend camping and picnic area", "ASSET_OWNE": "DELWP", "HERITAGE_V": "No", "MGA_ZONE": "55", "MGA_EASTIN": 560700.0, "MGA_NORTHI": 6021970.0 }, "geometry": { "type": "Point", "coordinates": [ 147.67301545, -35.944752500999982 ] } },
{ "type": "Feature", "properties": { "PARK_NAME": "River Murray Reserve", "PARK_ID": 3284.0, "SITE_NAME": null, "ASSET_DESC": "Lighthouse Crossing camping and picnic area", "ASSET_OWNE": "DELWP", "HERITAGE_V": "No", "MGA_ZONE": "55", "MGA_EASTIN": 589530.0, "MGA_NORTHI": 6004780.0 }, "geometry": { "type": "Point", "coordinates": [ 147.994579390000013, -36.09749497199999 ] } },
{ "type": "Feature", "properties": { "PARK_NAME": "Lower Glenelg National Park", "PARK_ID": 3300.0, "SITE_NAME": "Simsons, Lower Glenelg National Park", "ASSET_DESC": "Simsons Walkers Camp", "ASSET_OWNE": "DELWP", "HERITAGE_V": "No", "MGA_ZONE": "54", "MGA_EASTIN": 499490.0, "MGA_NORTHI": 5790460.0 }, "geometry": { "type": "Point", "coordinates": [ 140.994188517, -38.033572634 ] } },
{ "type": "Feature", "properties": { "PARK_NAME": "Errinundra National Park", "PARK_ID": 3318.0, "SITE_NAME": "_Not Attached to a Site", "ASSET_DESC": "Frosty Hollow - Campground", "ASSET_OWNE": "DELWP", "HERITAGE_V": "No", "MGA_ZONE": "55", "MGA_EASTIN": 673968.0, "MGA_NORTHI": 5870193.0 }, "geometry": { "type": "Point", "coordinates": [ 148.962822631999984, -37.298627125999985 ] } },
{ "type": "Feature", "properties": { "PARK_NAME": "Cape Conran Coastal Park", "PARK_ID": 3359.0, "SITE_NAME": "Dock Inlet, Cape Conran Coastal Park", "ASSET_DESC": "Dock Inlet - Campground", "ASSET_OWNE": "DELWP", "HERITAGE_V": "No", "MGA_ZONE": "55", "MGA_EASTIN": 662995.0, "MGA_NORTHI": 5816972.0 }, "geometry": { "type": "Point", "coordinates": [ 148.850896528000021, -37.780079097 ] } },
{ "type": "Feature", "properties": { "PARK_NAME": "Cape Conran Coastal Park", "PARK_ID": 3359.0, "SITE_NAME": "Pearl Point, Cape Conran Coastal Park", "ASSET_DESC": "Pearl Point - Camp Ground", "ASSET_OWNE": "DELWP", "HERITAGE_V": "No", "MGA_ZONE": "55", "MGA_EASTIN": 665524.0, "MGA_NORTHI": 5816067.0 }, "geometry": { "type": "Point", "coordinates": [ 148.87980715499998, -37.787777138000024 ] } },
{ "type": "Feature", "properties": { "PARK_NAME": "Great Otway National Park", "PARK_ID": 4710.0, "SITE_NAME": null, "ASSET_DESC": "GOW Devils Kitchen - Camp pad no. 7\r\n", "ASSET_OWNE": "DELWP", "HERITAGE_V": null, "MGA_ZONE": "54", "MGA_EASTIN": 691605.0, "MGA_NORTHI": 5709274.0 }, "geometry": { "type": "Point", "coordinates": [ 143.204711304000057, -38.744447046 ] } },
{ "type": "Feature", "properties": { "PARK_NAME": "Yarrawonga R.P", "PARK_ID": 3236.0, "SITE_NAME": "Chinamans Bend, Yarrawonga R.P", "ASSET_DESC": "Visitor Facilities - Camping Ground - Chinamans Bend Campsite. No facilities at site.", "ASSET_OWNE": "DELWP", "HERITAGE_V": "No", "MGA_ZONE": "55", "MGA_EASTIN": 407144.0, "MGA_NORTHI": 6014949.0 }, "geometry": { "type": "Point", "coordinates": [ 145.969673181999951, -36.005515152999976 ] } },
{ "type": "Feature", "properties": { "PARK_NAME": "River Murray Reserve", "PARK_ID": 3284.0, "SITE_NAME": "Bourkes Bend, Proposed Murray River Park (part)", "ASSET_DESC": "Camping Grounds Bourkes Bend No1 Beach at River Murray Reserve", "ASSET_OWNE": "DELWP", "HERITAGE_V": "No", "MGA_ZONE": "55", "MGA_EASTIN": 394985.0, "MGA_NORTHI": 6018003.0 }, "geometry": { "type": "Point", "coordinates": [ 145.835185804000048, -35.976751478999972 ] } },
{ "type": "Feature", "properties": { "PARK_NAME": "Great Otway National Park", "PARK_ID": 4710.0, "SITE_NAME": null, "ASSET_DESC": "GOW Johanna Hike-in Campsite - Camp pad no. 6\r\n", "ASSET_OWNE": "DELWP", "HERITAGE_V": null, "MGA_ZONE": "54", "MGA_EASTIN": 705932.0, "MGA_NORTHI": 5707403.0 }, "geometry": { "type": "Point", "coordinates": [ 143.369996333000017, -38.758069069999976 ] } },
{ "type": "Feature", "properties": { "PARK_NAME": "Cape Conran Coastal Park", "PARK_ID": 3359.0, "SITE_NAME": "Banksia Bluff Campground, Cape Conran Coastal Park", "ASSET_DESC": "Banksia Bluff Camp Area (sites 93-99)", "ASSET_OWNE": "DELWP", "HERITAGE_V": "No", "MGA_ZONE": "55", "MGA_EASTIN": 653391.0, "MGA_NORTHI": 5815142.0 }, "geometry": { "type": "Point", "coordinates": [ 148.742272831000037, -37.798228101 ] } },
{ "type": "Feature", "properties": { "PARK_NAME": "Great Otway National Park", "PARK_ID": 4710.0, "SITE_NAME": null, "ASSET_DESC": "GOW Elliot Ridge Hike-in Campsite - Camp pad no. 8\r\n", "ASSET_OWNE": "DELWP", "HERITAGE_V": null, "MGA_ZONE": "54", "MGA_EASTIN": 726949.0, "MGA_NORTHI": 5703129.0 }, "geometry": { "type": "Point", "coordinates": [ 143.613054861000023, -38.791392261 ] } },
{ "type": "Feature", "properties": { "PARK_NAME": "Cape Conran Coastal Park", "PARK_ID": 3359.0, "SITE_NAME": "Banksia Bluff Campground, Cape Conran Coastal Park", "ASSET_DESC": "Banksia Bluff Camping Area - sites 100-109", "ASSET_OWNE": "DELWP", "HERITAGE_V": "No", "MGA_ZONE": "55", "MGA_EASTIN": 653358.0, "MGA_NORTHI": 5815088.0 }, "geometry": { "type": "Point", "coordinates": [ 148.741909590999967, -37.79872013 ] } },
{ "type": "Feature", "properties": { "PARK_NAME": "Great Otway National Park", "PARK_ID": 4710.0, "SITE_NAME": null, "ASSET_DESC": "GOW Cape Otway Hike-in campsite -  Camp pad no. 6\r\n", "ASSET_OWNE": "DELWP", "HERITAGE_V": null, "MGA_ZONE": "54", "MGA_EASTIN": 718253.0, "MGA_NORTHI": 5696894.0 }, "geometry": { "type": "Point", "coordinates": [ 143.514996880000012, -38.849721095 ] } },
{ "type": "Feature", "properties": { "PARK_NAME": "Great Otway National Park", "PARK_ID": 4710.0, "SITE_NAME": null, "ASSET_DESC": "GOW Cape Otway Hike-in campsite -  Camp pad no. 5\r\n", "ASSET_OWNE": "DELWP", "HERITAGE_V": null, "MGA_ZONE": "54", "MGA_EASTIN": 718253.0, "MGA_NORTHI": 5696894.0 }, "geometry": { "type": "Point", "coordinates": [ 143.514996880000012, -38.849721095 ] } },
{ "type": "Feature", "properties": { "PARK_NAME": "Great Otway National Park", "PARK_ID": 4710.0, "SITE_NAME": null, "ASSET_DESC": "GOW Aire River Hike-in campsite - Camp pad no. 2\r\n", "ASSET_OWNE": "DELWP", "HERITAGE_V": null, "MGA_ZONE": "54", "MGA_EASTIN": 714998.0, "MGA_NORTHI": 5702320.0 }, "geometry": { "type": "Point", "coordinates": [ 143.475827851999952, -38.801671197000019 ] } },
{ "type": "Feature", "properties": { "PARK_NAME": "Wyperfeld National Park", "PARK_ID": 3309.0, "SITE_NAME": "Wonga Campground, Wyperfeld National Park", "ASSET_DESC": "Designated Sites, Wonga Camping area", "ASSET_OWNE": "Parks Victoria", "HERITAGE_V": "No", "MGA_ZONE": "54", "MGA_EASTIN": 595255.0, "MGA_NORTHI": 6061665.0 }, "geometry": { "type": "Point", "coordinates": [ 142.051378911000029, -35.584151787 ] } },
{ "type": "Feature", "properties": { "PARK_NAME": "Kooyoora State Park", "PARK_ID": 3337.0, "SITE_NAME": "Melville Caves Camping Area, Kooyoora State Park", "ASSET_DESC": "Melville Caves Camping Ground - Kooyoora SP", "ASSET_OWNE": "DELWP", "HERITAGE_V": "No", "MGA_ZONE": "54", "MGA_EASTIN": 741350.0, "MGA_NORTHI": 5945980.0 }, "geometry": { "type": "Point", "coordinates": [ 143.698207862, -36.601168412999982 ] } },
{ "type": "Feature", "properties": { "PARK_NAME": "Hattah - Kulkyne National Park", "PARK_ID": 3296.0, "SITE_NAME": "Lake Hattah, Hattah - Kulkyne National Park", "ASSET_DESC": "Campground - Lake Hattah Campground at Hattah Kulkyne National Park.\r\n", "ASSET_OWNE": "DELWP", "HERITAGE_V": "No", "MGA_ZONE": "54", "MGA_EASTIN": 622883.0, "MGA_NORTHI": 6153513.0 }, "geometry": { "type": "Point", "coordinates": [ 142.342575227, -34.753125797 ] } },
{ "type": "Feature", "properties": { "PARK_NAME": "Wilsons Promontory National Park", "PARK_ID": 3308.0, "SITE_NAME": "Refuge Cove, Wilsons Promontory National Park", "ASSET_DESC": "Refuge Cove Campground", "ASSET_OWNE": "DELWP", "HERITAGE_V": "No", "MGA_ZONE": "55", "MGA_EASTIN": 453765.0, "MGA_NORTHI": 5678215.0 }, "geometry": { "type": "Point", "coordinates": [ 146.465728944000034, -39.04390881099999 ] } },
{ "type": "Feature", "properties": { "PARK_NAME": "Paddys Ranges State Park", "PARK_ID": 3348.0, "SITE_NAME": "Camping Area (adjacent to Karri Track), Paddys Ranges State Park", "ASSET_DESC": "Paddys Ranges campgroud", "ASSET_OWNE": "DELWP", "HERITAGE_V": "No", "MGA_ZONE": "54", "MGA_EASTIN": 739231.0, "MGA_NORTHI": 5892491.0 }, "geometry": { "type": "Point", "coordinates": [ 143.691380408999976, -37.083357885999988 ] } },
{ "type": "Feature", "properties": { "PARK_NAME": "Alpine National Park", "PARK_ID": 3319.0, "SITE_NAME": "Bennies Camping Area, Alpine National Park", "ASSET_DESC": "Bennies Campground No 1", "ASSET_OWNE": "DELWP", "HERITAGE_V": "No", "MGA_ZONE": "55", "MGA_EASTIN": 458926.0, "MGA_NORTHI": 5909025.0 }, "geometry": { "type": "Point", "coordinates": [ 146.53858896, -36.963971010000023 ] } },
{ "type": "Feature", "properties": { "PARK_NAME": "Alpine National Park", "PARK_ID": 3319.0, "SITE_NAME": "Roaring Camp, Alpine National Park", "ASSET_DESC": "Roaring Camp - dispersed camping area", "ASSET_OWNE": "DELWP", "HERITAGE_V": "No", "MGA_ZONE": "55", "MGA_EASTIN": 654929.0, "MGA_NORTHI": 5899885.0 }, "geometry": { "type": "Point", "coordinates": [ 148.741956, -37.03446999 ] } },
{ "type": "Feature", "properties": { "PARK_NAME": "Alpine National Park", "PARK_ID": 3319.0, "SITE_NAME": "The Playgrounds, Alpine National Park", "ASSET_DESC": "The Playgrounds Campground", "ASSET_OWNE": "DELWP", "HERITAGE_V": "No", "MGA_ZONE": "55", "MGA_EASTIN": 526566.0, "MGA_NORTHI": 5889609.0 }, "geometry": { "type": "Point", "coordinates": [ 147.299122079999961, -37.13951304 ] } },
{ "type": "Feature", "properties": { "PARK_NAME": "Alpine National Park", "PARK_ID": 3319.0, "SITE_NAME": "Willis Camp Area, Alpine National Park", "ASSET_DESC": "Willis Camping Area", "ASSET_OWNE": "DELWP", "HERITAGE_V": "No", "MGA_ZONE": "55", "MGA_EASTIN": 626963.0, "MGA_NORTHI": 5915461.0 }, "geometry": { "type": "Point", "coordinates": [ 148.424996879999981, -36.898304040000028 ] } },
{ "type": "Feature", "properties": { "PARK_NAME": "Howqua Hills H.A", "PARK_ID": 2923.0, "SITE_NAME": "Pickerings Flat, Howqua Hills H.A", "ASSET_DESC": "Pickerings Flat Campground and DVA", "ASSET_OWNE": "DELWP", "HERITAGE_V": "No", "MGA_ZONE": "55", "MGA_EASTIN": 442600.0, "MGA_NORTHI": 5884100.0 }, "geometry": { "type": "Point", "coordinates": [ 146.353293, -37.187784 ] } },
{ "type": "Feature", "properties": { "PARK_NAME": "Howqua Hills H.A", "PARK_ID": 2923.0, "SITE_NAME": "Noonans Flat, Howqua Hills H.A", "ASSET_DESC": "Noonans Flat Campground and DVA", "ASSET_OWNE": "DELWP", "HERITAGE_V": "No", "MGA_ZONE": "55", "MGA_EASTIN": 443400.0, "MGA_NORTHI": 5883800.0 }, "geometry": { "type": "Point", "coordinates": [ 146.362282919999984, -37.190537010000014 ] } },
{ "type": "Feature", "properties": { "PARK_NAME": "Croajingolong National Park", "PARK_ID": 3311.0, "SITE_NAME": "Swan Lake, Croajingolong National Park", "ASSET_DESC": "Swan Lake - Camping Grounds", "ASSET_OWNE": "DELWP", "HERITAGE_V": "No", "MGA_ZONE": "55", "MGA_EASTIN": 679336.0, "MGA_NORTHI": 5822385.0 }, "geometry": { "type": "Point", "coordinates": [ 149.03501796, -37.728261 ] } },
{ "type": "Feature", "properties": { "PARK_NAME": "Discovery Bay Coastal Park", "PARK_ID": 3360.0, "SITE_NAME": "Mallee Camp, Discovery Bay Coastal Park", "ASSET_DESC": "Mallee Walkers Camp", "ASSET_OWNE": "DELWP", "HERITAGE_V": "No", "MGA_ZONE": "54", "MGA_EASTIN": 548389.0, "MGA_NORTHI": 5748191.0 }, "geometry": { "type": "Point", "coordinates": [ 141.554266840999958, -38.413213868000014 ] } },
{ "type": "Feature", "properties": { "PARK_NAME": "Alpine National Park", "PARK_ID": 3319.0, "SITE_NAME": "Eaglevale Camping Area, Alpine National Park", "ASSET_DESC": "Eaglevale Campground", "ASSET_OWNE": "DELWP", "HERITAGE_V": "No", "MGA_ZONE": "55", "MGA_EASTIN": 500600.0, "MGA_NORTHI": 5864400.0 }, "geometry": { "type": "Point", "coordinates": [ 147.006776159999959, -37.36712502 ] } },
{ "type": "Feature", "properties": { "PARK_NAME": "Alpine National Park", "PARK_ID": 3319.0, "SITE_NAME": "Wonnangatta Station*, Alpine National Park", "ASSET_DESC": "Wonnangatta Station campgrounds", "ASSET_OWNE": "DELWP", "HERITAGE_V": "No", "MGA_ZONE": "55", "MGA_EASTIN": 485000.0, "MGA_NORTHI": 5882000.0 }, "geometry": { "type": "Point", "coordinates": [ 146.830952880000041, -37.208358 ] } },
{ "type": "Feature", "properties": { "PARK_NAME": "Cape Conran Coastal Park", "PARK_ID": 3359.0, "SITE_NAME": "Fourth Beach, Cape Conran Coastal Park", "ASSET_DESC": "Fourth Beach - Campground", "ASSET_OWNE": "DELWP", "HERITAGE_V": "No", "MGA_ZONE": "55", "MGA_EASTIN": 666342.0, "MGA_NORTHI": 5816219.0 }, "geometry": { "type": "Point", "coordinates": [ 148.889057040000012, -37.786258980000014 ] } },
{ "type": "Feature", "properties": { "PARK_NAME": "Snowy River National Park", "PARK_ID": 3313.0, "SITE_NAME": "McKillops West Camp, Snowy River National Park", "ASSET_DESC": "Mackillops Campground", "ASSET_OWNE": "DELWP", "HERITAGE_V": "No", "MGA_ZONE": "55", "MGA_EASTIN": 625592.0, "MGA_NORTHI": 5894069.0 }, "geometry": { "type": "Point", "coordinates": [ 148.413177, -37.091265029999988 ] } },
{ "type": "Feature", "properties": { "PARK_NAME": "Howqua Hills H.A", "PARK_ID": 2923.0, "SITE_NAME": "Tunnel Spur, Howqua Hills H.A", "ASSET_DESC": "Tunnel Bend Camp ground and DVA", "ASSET_OWNE": "DELWP", "HERITAGE_V": "No", "MGA_ZONE": "55", "MGA_EASTIN": 443590.0, "MGA_NORTHI": 5883786.0 }, "geometry": { "type": "Point", "coordinates": [ 146.364422040000022, -37.190674979999983 ] } },
{ "type": "Feature", "properties": { "PARK_NAME": "Alpine National Park", "PARK_ID": 3319.0, "SITE_NAME": "Six Mile, Alpine National Park", "ASSET_DESC": "Six Mile Flat - walk in camping", "ASSET_OWNE": "DELWP", "HERITAGE_V": "No", "MGA_ZONE": "55", "MGA_EASTIN": 446700.0, "MGA_NORTHI": 5883300.0 }, "geometry": { "type": "Point", "coordinates": [ 146.39942592, -37.19523798 ] } },
{ "type": "Feature", "properties": { "PARK_NAME": "Great Otway National Park", "PARK_ID": 4710.0, "SITE_NAME": null, "ASSET_DESC": "GOW Cape Otway Hike-in campsite -  Camp pad no. 3\r\n", "ASSET_OWNE": "DELWP", "HERITAGE_V": null, "MGA_ZONE": "54", "MGA_EASTIN": 718229.0, "MGA_NORTHI": 5696925.0 }, "geometry": { "type": "Point", "coordinates": [ 143.514710735999984, -38.849447958999974 ] } },
{ "type": "Feature", "properties": { "PARK_NAME": "Great Otway National Park", "PARK_ID": 4710.0, "SITE_NAME": null, "ASSET_DESC": "GOW Johanna Hike-in Campsite - Camp pad no. 1\r\n", "ASSET_OWNE": "DELWP", "HERITAGE_V": null, "MGA_ZONE": "54", "MGA_EASTIN": 705861.0, "MGA_NORTHI": 5707436.0 }, "geometry": { "type": "Point", "coordinates": [ 143.369170039999972, -38.757788499000014 ] } },
{ "type": "Feature", "properties": { "PARK_NAME": "Great Otway National Park", "PARK_ID": 4710.0, "SITE_NAME": "Blanket Bay, Great Otway National Park", "ASSET_DESC": "GOW Blanket Bay Hike-in Campsite - Camp pad no. 1\r\n", "ASSET_OWNE": "DELWP", "HERITAGE_V": null, "MGA_ZONE": "54", "MGA_EASTIN": 724161.0, "MGA_NORTHI": 5699351.0 }, "geometry": { "type": "Point", "coordinates": [ 143.582213095000043, -38.826116856999988 ] } },
{ "type": "Feature", "properties": { "PARK_NAME": "Great Otway National Park", "PARK_ID": 4710.0, "SITE_NAME": "Blanket Bay, Great Otway National Park", "ASSET_DESC": "GOW Blanket Bay Hike-in Campsite - Camp pad no. 6\r\n", "ASSET_OWNE": "DELWP", "HERITAGE_V": null, "MGA_ZONE": "54", "MGA_EASTIN": 724137.0, "MGA_NORTHI": 5699352.0 }, "geometry": { "type": "Point", "coordinates": [ 143.581936563999989, -38.826113964 ] } },
{ "type": "Feature", "properties": { "PARK_NAME": "Alpine National Park", "PARK_ID": 3319.0, "SITE_NAME": "Raspberry Hill Picnic & Camping Area, Alpine National Park", "ASSET_DESC": "Raspberry Hill Camping Area", "ASSET_OWNE": "DELWP", "HERITAGE_V": "No", "MGA_ZONE": "55", "MGA_EASTIN": 528200.0, "MGA_NORTHI": 5911290.0 }, "geometry": { "type": "Point", "coordinates": [ 147.316707, -36.944027010000013 ] } },
{ "type": "Feature", "properties": { "PARK_NAME": "Wilsons Promontory National Park", "PARK_ID": 3308.0, "SITE_NAME": "Barry Creek, Wilsons Promontory National Park", "ASSET_DESC": "Barry Creek Campground", "ASSET_OWNE": "DELWP", "HERITAGE_V": "No", "MGA_ZONE": "55", "MGA_EASTIN": 444939.0, "MGA_NORTHI": 5692962.0 }, "geometry": { "type": "Point", "coordinates": [ 146.364933071999985, -38.91051425500001 ] } },
{ "type": "Feature", "properties": { "PARK_NAME": "Brisbane Ranges National Park", "PARK_ID": 3288.0, "SITE_NAME": "Boar Gully Camping Area, Brisbane Ranges National Park", "ASSET_DESC": "Boar Gully Camping Ground", "ASSET_OWNE": "DELWP", "HERITAGE_V": "No", "MGA_ZONE": "55", "MGA_EASTIN": 258927.0, "MGA_NORTHI": 5816528.0 }, "geometry": { "type": "Point", "coordinates": [ 144.263117159999979, -37.76682402 ] } },
{ "type": "Feature", "properties": { "PARK_NAME": null, "PARK_ID": 0.0, "SITE_NAME": "_Not Attached to a Site", "ASSET_DESC": "Mt Terrick Terrick Camp Ground", "ASSET_OWNE": "DELWP", "HERITAGE_V": "No", "MGA_ZONE": "55", "MGA_EASTIN": 251260.0, "MGA_NORTHI": 5988930.0 }, "geometry": { "type": "Point", "coordinates": [ 144.23302008, -36.21251601 ] } },
{ "type": "Feature", "properties": { "PARK_NAME": "Yarra Valley Parklands", "PARK_ID": 4091.0, "SITE_NAME": "Longridge Park, Yarra Valley Parklands", "ASSET_DESC": "Longridge camping ground", "ASSET_OWNE": "DELWP", "HERITAGE_V": "No", "MGA_ZONE": "55", "MGA_EASTIN": 340750.0, "MGA_NORTHI": 5822290.0 }, "geometry": { "type": "Point", "coordinates": [ 145.192776477000052, -37.73283067599999 ] } },
{ "type": "Feature", "properties": { "PARK_NAME": "Enfield State Park", "PARK_ID": 3356.0, "SITE_NAME": "Surface Point Picnic Ground, Enfield State Park", "ASSET_DESC": "Surface Point Picnic Ground", "ASSET_OWNE": "DELWP", "HERITAGE_V": "No", "MGA_ZONE": "54", "MGA_EASTIN": 741190.0, "MGA_NORTHI": 5816180.0 }, "geometry": { "type": "Point", "coordinates": [ 143.738326079999979, -37.769925960000023 ] } },
{ "type": "Feature", "properties": { "PARK_NAME": "River Murray Reserve", "PARK_ID": 3284.0, "SITE_NAME": "Ulupna Creek East, River Murray Reserve", "ASSET_DESC": "Ulupna Creek East camping ground  - MRP", "ASSET_OWNE": "DELWP", "HERITAGE_V": "No", "MGA_ZONE": "55", "MGA_EASTIN": 366110.0, "MGA_NORTHI": 6035230.0 }, "geometry": { "type": "Point", "coordinates": [ 145.517892120000056, -35.817947010000012 ] } },
{ "type": "Feature", "properties": { "PARK_NAME": "Jarvis Creek Plateau R.P.", "PARK_ID": 3244.0, "SITE_NAME": "_Not Attached to a Site", "ASSET_DESC": "The Plateau picnic and camping area.", "ASSET_OWNE": "DELWP", "HERITAGE_V": "No", "MGA_ZONE": "55", "MGA_EASTIN": 518920.0, "MGA_NORTHI": 6000390.0 }, "geometry": { "type": "Point", "coordinates": [ 147.210299438999982, -36.141017337999983 ] } },
{ "type": "Feature", "properties": { "PARK_NAME": "River Murray Reserve", "PARK_ID": 3284.0, "SITE_NAME": null, "ASSET_DESC": "Bullock Flat camping and picnic area", "ASSET_OWNE": "DELWP", "HERITAGE_V": "No", "MGA_ZONE": "55", "MGA_EASTIN": 552560.0, "MGA_NORTHI": 6017360.0 }, "geometry": { "type": "Point", "coordinates": [ 147.58307264699999, -35.986786186000018 ] } },
{ "type": "Feature", "properties": { "PARK_NAME": "Grampians National Park", "PARK_ID": 3316.0, "SITE_NAME": "First Wannon Remote Campground, Grampians National Park", "ASSET_DESC": "First Wannon Hiker Camp", "ASSET_OWNE": "DELWP", "HERITAGE_V": "No", "MGA_ZONE": "54", "MGA_EASTIN": 640714.0, "MGA_NORTHI": 5868371.0 }, "geometry": { "type": "Point", "coordinates": [ 142.588121040000033, -37.320671969999978 ] } },
{ "type": "Feature", "properties": { "PARK_NAME": null, "PARK_ID": 0.0, "SITE_NAME": null, "ASSET_DESC": "Glen Dart camping and picnic area\r\nOther Visitor Site\r\nShould be Glen Dart not Glendart, Alpine National Park\r\n", "ASSET_OWNE": "DELWP", "HERITAGE_V": "No", "MGA_ZONE": "55", "MGA_EASTIN": 568030.0, "MGA_NORTHI": 5959980.0 }, "geometry": { "type": "Point", "coordinates": [ 147.759666366000033, -36.503097863999983 ] } },
{ "type": "Feature", "properties": { "PARK_NAME": "Alpine National Park", "PARK_ID": 3319.0, "SITE_NAME": "Hermit Creek, Alpine National Park", "ASSET_DESC": "Hermit Creek camping area (rafters and walkers only)", "ASSET_OWNE": "DELWP", "HERITAGE_V": "No", "MGA_ZONE": "55", "MGA_EASTIN": 597500.0, "MGA_NORTHI": 5965340.0 }, "geometry": { "type": "Point", "coordinates": [ 148.08802593200005, -36.452235945999973 ] } },
{ "type": "Feature", "properties": { "PARK_NAME": "Yarrawonga R.P", "PARK_ID": 3236.0, "SITE_NAME": "Forges Bend, Yarrawonga R.P", "ASSET_DESC": "Visitor Facilities - Camping Grounds - Little Bruces Beach.", "ASSET_OWNE": "DELWP", "HERITAGE_V": "No", "MGA_ZONE": "55", "MGA_EASTIN": 405426.0, "MGA_NORTHI": 6017339.0 }, "geometry": { "type": "Point", "coordinates": [ 145.950898531, -35.983805401999973 ] } },
{ "type": "Feature", "properties": { "PARK_NAME": "Pheasant Creek F.R.", "PARK_ID": 241.0, "SITE_NAME": "Pikes Dam, Pheasant Creek F.R.", "ASSET_DESC": "Pikes Dam picnic area\r\n", "ASSET_OWNE": "DELWP", "HERITAGE_V": "No", "MGA_ZONE": "55", "MGA_EASTIN": 553320.0, "MGA_NORTHI": 6001550.0 }, "geometry": { "type": "Point", "coordinates": [ 147.592570945000034, -36.129277980999973 ] } },
{ "type": "Feature", "properties": { "PARK_NAME": "Burrowa - Pine Mountain National Park", "PARK_ID": 3310.0, "SITE_NAME": null, "ASSET_DESC": "Hinces Clearing trailhead\r\n", "ASSET_OWNE": "DELWP", "HERITAGE_V": "No", "MGA_ZONE": "55", "MGA_EASTIN": 568670.0, "MGA_NORTHI": 6005840.0 }, "geometry": { "type": "Point", "coordinates": [ 147.76277677500002, -36.08963839 ] } },
{ "type": "Feature", "properties": { "PARK_NAME": "Errinundra National Park", "PARK_ID": 3318.0, "SITE_NAME": "Tea Tree Flat, Errinundra National Park", "ASSET_DESC": "Tea Tree Flat - Picnic Area", "ASSET_OWNE": "DELWP", "HERITAGE_V": "No", "MGA_ZONE": "55", "MGA_EASTIN": 662781.0, "MGA_NORTHI": 5876664.0 }, "geometry": { "type": "Point", "coordinates": [ 148.835248611, -37.24235319600001 ] } },
{ "type": "Feature", "properties": { "PARK_NAME": "Mount Lawson State Park", "PARK_ID": 3344.0, "SITE_NAME": "_Not Attached to a Site", "ASSET_DESC": "Koetong Creek campsite No. 2", "ASSET_OWNE": "DELWP", "HERITAGE_V": "No", "MGA_ZONE": "55", "MGA_EASTIN": 540470.0, "MGA_NORTHI": 6005090.0 }, "geometry": { "type": "Point", "coordinates": [ 147.449585322999951, -36.097984462999989 ] } },
{ "type": "Feature", "properties": { "PARK_NAME": "Burrowa - Pine Mountain National Park", "PARK_ID": 3310.0, "SITE_NAME": "Hinces Saddle, Burrowa - Pine Mountain National Park", "ASSET_DESC": "Hinces Saddle camping area", "ASSET_OWNE": "DELWP", "HERITAGE_V": "No", "MGA_ZONE": "55", "MGA_EASTIN": 563700.0, "MGA_NORTHI": 6003700.0 }, "geometry": { "type": "Point", "coordinates": [ 147.707747647000019, -36.10926938 ] } },
{ "type": "Feature", "properties": { "PARK_NAME": "Burrowa - Pine Mountain National Park", "PARK_ID": 3310.0, "SITE_NAME": "Bluegum Camp, Burrowa - Pine Mountain National Park", "ASSET_DESC": "Blue Gum Camp camping and picnic area", "ASSET_OWNE": "DELWP", "HERITAGE_V": "No", "MGA_ZONE": "55", "MGA_EASTIN": 569260.0, "MGA_NORTHI": 6001950.0 }, "geometry": { "type": "Point", "coordinates": [ 147.769671932000051, -36.124664720999988 ] } },
{ "type": "Feature", "properties": { "PARK_NAME": "Burrowa - Pine Mountain National Park", "PARK_ID": 3310.0, "SITE_NAME": "Black Mountain, Burrowa - Pine Mountain National Park", "ASSET_DESC": "Black Mountain trailhead", "ASSET_OWNE": "DELWP", "HERITAGE_V": "No", "MGA_ZONE": "55", "MGA_EASTIN": 564500.0, "MGA_NORTHI": 6001920.0 }, "geometry": { "type": "Point", "coordinates": [ 147.716781368000056, -36.12526335299998 ] } },
{ "type": "Feature", "properties": { "PARK_NAME": "Gundowring SS.R.", "PARK_ID": 3017.0, "SITE_NAME": "_Not Attached to a Site", "ASSET_DESC": "Kiewa River K23 campsites", "ASSET_OWNE": "DELWP", "HERITAGE_V": "No", "MGA_ZONE": "55", "MGA_EASTIN": 504184.0, "MGA_NORTHI": 5968823.0 }, "geometry": { "type": "Point", "coordinates": [ 147.046675250000021, -36.425785650000023 ] } },
{ "type": "Feature", "properties": { "PARK_NAME": "Alpine National Park", "PARK_ID": 3319.0, "SITE_NAME": null, "ASSET_DESC": "Halls Paddock camping and picnic area\r\n\r\n", "ASSET_OWNE": "DELWP", "HERITAGE_V": "No", "MGA_ZONE": "55", "MGA_EASTIN": 593440.0, "MGA_NORTHI": 5974120.0 }, "geometry": { "type": "Point", "coordinates": [ 148.041668996999988, -36.373498915000027 ] } },
{ "type": "Feature", "properties": { "PARK_NAME": null, "PARK_ID": 0.0, "SITE_NAME": null, "ASSET_DESC": "Bunroy Station trailhead\r\n\r\n", "ASSET_OWNE": "DELWP", "HERITAGE_V": "No", "MGA_ZONE": "55", "MGA_EASTIN": 592780.0, "MGA_NORTHI": 5972120.0 }, "geometry": { "type": "Point", "coordinates": [ 148.034551198000031, -36.391590625999982 ] } },
{ "type": "Feature", "properties": { "PARK_NAME": "Great Otway National Park", "PARK_ID": 4710.0, "SITE_NAME": "Aire River (West), Great Otway National Park", "ASSET_DESC": "Aire River (west) Camp Area", "ASSET_OWNE": "DELWP", "HERITAGE_V": "No", "MGA_ZONE": "54", "MGA_EASTIN": 715124.0, "MGA_NORTHI": 5702238.0 }, "geometry": { "type": "Point", "coordinates": [ 143.477303131999975, -38.802378716000021 ] } },
{ "type": "Feature", "properties": { "PARK_NAME": "Brisbane Ranges National Park", "PARK_ID": 3288.0, "SITE_NAME": "Old Mill Walk-in Camping, Brisbane Ranges National Park", "ASSET_DESC": "Old Mill Camping Ground", "ASSET_OWNE": "DELWP", "HERITAGE_V": "No", "MGA_ZONE": "55", "MGA_EASTIN": 253273.0, "MGA_NORTHI": 5806798.0 }, "geometry": { "type": "Point", "coordinates": [ 144.19568359499999, -37.852909286999989 ] } },
{ "type": "Feature", "properties": { "PARK_NAME": "Great Otway National Park", "PARK_ID": 4710.0, "SITE_NAME": null, "ASSET_DESC": "GOW Aire River Hike-in campsite - Camp pad no. 1\r\n", "ASSET_OWNE": "DELWP", "HERITAGE_V": null, "MGA_ZONE": "54", "MGA_EASTIN": 714998.0, "MGA_NORTHI": 5702320.0 }, "geometry": { "type": "Point", "coordinates": [ 143.475827851999952, -38.801671197000019 ] } },
{ "type": "Feature", "properties": { "PARK_NAME": "Cape Conran Coastal Park", "PARK_ID": 3359.0, "SITE_NAME": "Banksia Bluff Campground, Cape Conran Coastal Park", "ASSET_DESC": "Banksia Bluff Camping Area - sites 30-55 at Cape Conran Coastal Park", "ASSET_OWNE": "DELWP", "HERITAGE_V": "No", "MGA_ZONE": "55", "MGA_EASTIN": 653721.0, "MGA_NORTHI": 5815364.0 }, "geometry": { "type": "Point", "coordinates": [ 148.745972411000025, -37.796172615999978 ] } },
{ "type": "Feature", "properties": { "PARK_NAME": "Alpine National Park", "PARK_ID": 3319.0, "SITE_NAME": "Dibbin Hut Camping Area, Alpine National Park", "ASSET_DESC": "Tent platform - 4 at Falls to Hotham Alpine Crossing Dibbins Hut camping area with 4.5m x 3m steel structure with FRP grating deck\r\n", "ASSET_OWNE": null, "HERITAGE_V": null, "MGA_ZONE": "55", "MGA_EASTIN": 516300.0, "MGA_NORTHI": 5910800.0 }, "geometry": { "type": "Point", "coordinates": [ 147.183072388000028, -36.94872548799998 ] } },
{ "type": "Feature", "properties": { "PARK_NAME": "Alpine National Park", "PARK_ID": 3319.0, "SITE_NAME": "Dibbin Hut Camping Area, Alpine National Park", "ASSET_DESC": "Tent platform - 5 at Falls to Hotham Alpine Crossing Dibbins Hut camping area with 3.7m x 3m steel structure with FRP grating deck\r\n", "ASSET_OWNE": null, "HERITAGE_V": null, "MGA_ZONE": "55", "MGA_EASTIN": 516300.0, "MGA_NORTHI": 5910800.0 }, "geometry": { "type": "Point", "coordinates": [ 147.183072388000028, -36.94872548799998 ] } },
{ "type": "Feature", "properties": { "PARK_NAME": "Cobboboonee National Park", "PARK_ID": 4862.0, "SITE_NAME": null, "ASSET_DESC": "Wrights Horse Camp Corral West", "ASSET_OWNE": "DELWP", "HERITAGE_V": "No", "MGA_ZONE": "54", "MGA_EASTIN": 534189.0, "MGA_NORTHI": 5790144.0 }, "geometry": { "type": "Point", "coordinates": [ 141.38959716, -38.035774979999985 ] } },
{ "type": "Feature", "properties": { "PARK_NAME": "Great Otway National Park", "PARK_ID": 4710.0, "SITE_NAME": "Blanket Bay, Great Otway National Park", "ASSET_DESC": "GOW Blanket Bay Hike-in Campsite - Camp pad no. 3\r\n", "ASSET_OWNE": "DELWP", "HERITAGE_V": null, "MGA_ZONE": "54", "MGA_EASTIN": 724137.0, "MGA_NORTHI": 5699352.0 }, "geometry": { "type": "Point", "coordinates": [ 143.581936563999989, -38.826113964 ] } },
{ "type": "Feature", "properties": { "PARK_NAME": "Alpine National Park", "PARK_ID": 3319.0, "SITE_NAME": null, "ASSET_DESC": "Anglers Rest Camping area Access Track\r\n", "ASSET_OWNE": "DELWP", "HERITAGE_V": null, "MGA_ZONE": "55", "MGA_EASTIN": 543486.0, "MGA_NORTHI": 5905890.0 }, "geometry": { "type": "Point", "coordinates": [ 147.488686102999964, -36.992121759999975 ] } },
{ "type": "Feature", "properties": { "PARK_NAME": "Lake Eildon National Park", "PARK_ID": 3294.0, "SITE_NAME": "Candlebark, Lake Eildon National Park", "ASSET_DESC": "Candlebark Campground, Fraser Block, LNEP\r\n", "ASSET_OWNE": null, "HERITAGE_V": null, "MGA_ZONE": "55", "MGA_EASTIN": 397065.0, "MGA_NORTHI": 5884882.0 }, "geometry": { "type": "Point", "coordinates": [ 145.840446713, -37.176825902000019 ] } },
{ "type": "Feature", "properties": { "PARK_NAME": "Alpine National Park", "PARK_ID": 3319.0, "SITE_NAME": "Cope Hut, Alpine National Park", "ASSET_DESC": "Tent platform - 5 at Falls to Hotham Apline Crossing Cope Hut with 3.7m x 3m steel structure with FRP grating deck\r\n", "ASSET_OWNE": null, "HERITAGE_V": null, "MGA_ZONE": "55", "MGA_EASTIN": 526100.0, "MGA_NORTHI": 5915300.0 }, "geometry": { "type": "Point", "coordinates": [ 147.292984109000031, -36.907939915999975 ] } },
{ "type": "Feature", "properties": { "PARK_NAME": "Alpine National Park", "PARK_ID": 3319.0, "SITE_NAME": "Cope Hut, Alpine National Park", "ASSET_DESC": "Tent platform - 3 at Falls to Hotham Alpine Crossing Cope Hut with 3.7m x 3m steel structure with FRP grating deck\r\n\r\n", "ASSET_OWNE": null, "HERITAGE_V": null, "MGA_ZONE": "55", "MGA_EASTIN": 526100.0, "MGA_NORTHI": 5915300.0 }, "geometry": { "type": "Point", "coordinates": [ 147.292984109000031, -36.907939915999975 ] } },
{ "type": "Feature", "properties": { "PARK_NAME": "Greater Bendigo National Park", "PARK_ID": 4492.0, "SITE_NAME": null, "ASSET_DESC": "Camp site - Sign 562 at Leanganook Trk - Coliban Water Walk \r\n", "ASSET_OWNE": "DELWP", "HERITAGE_V": null, "MGA_ZONE": "55", "MGA_EASTIN": 257575.0, "MGA_NORTHI": 5914426.0 }, "geometry": { "type": "Point", "coordinates": [ 144.279769710999972, -36.885029207 ] } },
{ "type": "Feature", "properties": { "PARK_NAME": "Lake Tyers S.P.", "PARK_ID": 3419.0, "SITE_NAME": "_Not Attached to a Site", "ASSET_DESC": "Camping Area at The Ironbarks -  Lake Tyers S.P.\r\n", "ASSET_OWNE": null, "HERITAGE_V": null, "MGA_ZONE": "55", "MGA_EASTIN": 600226.0, "MGA_NORTHI": 5815562.0 }, "geometry": { "type": "Point", "coordinates": [ 148.138482940000017, -37.801830784 ] } },
{ "type": "Feature", "properties": { "PARK_NAME": "Alpine National Park", "PARK_ID": 3319.0, "SITE_NAME": null, "ASSET_DESC": "Bivouac Hut camping area", "ASSET_OWNE": "DELWP", "HERITAGE_V": "Yes", "MGA_ZONE": "55", "MGA_EASTIN": 526200.0, "MGA_NORTHI": 5936600.0 }, "geometry": { "type": "Point", "coordinates": [ 147.29337288, -36.71592597 ] } },
{ "type": "Feature", "properties": { "PARK_NAME": "Cathedral Range State Park", "PARK_ID": 3332.0, "SITE_NAME": "The Farmyard, Cathedral Range State Park", "ASSET_DESC": "Farmyard Camping Ground, CRSP", "ASSET_OWNE": "DELWP", "HERITAGE_V": "No", "MGA_ZONE": "55", "MGA_EASTIN": 388350.0, "MGA_NORTHI": 5861330.0 }, "geometry": { "type": "Point", "coordinates": [ 145.73875608000003, -37.388070990000017 ] } },
{ "type": "Feature", "properties": { "PARK_NAME": "Grampians National Park", "PARK_ID": 3316.0, "SITE_NAME": "Troopers Creek Campground, Grampians National Park", "ASSET_DESC": "Troopers Creek Campground", "ASSET_OWNE": "DELWP", "HERITAGE_V": "No", "MGA_ZONE": "54", "MGA_EASTIN": 626878.0, "MGA_NORTHI": 5902357.0 }, "geometry": { "type": "Point", "coordinates": [ 142.42624416000001, -37.016404019999982 ] } },
{ "type": "Feature", "properties": { "PARK_NAME": "Alpine National Park", "PARK_ID": 3319.0, "SITE_NAME": "Wombat Post Office Camping Area, Alpine National Park", "ASSET_DESC": "Wombat Post Office Campground", "ASSET_OWNE": "DELWP", "HERITAGE_V": "No", "MGA_ZONE": "55", "MGA_EASTIN": 553183.0, "MGA_NORTHI": 5929478.0 }, "geometry": { "type": "Point", "coordinates": [ 147.595998959999974, -36.778997969999978 ] } },
{ "type": "Feature", "properties": { "PARK_NAME": "Victoria Falls H.A", "PARK_ID": 2925.0, "SITE_NAME": "Victoria Falls Camp Area, Victoria Falls H.A", "ASSET_DESC": "Victoria Falls Campground", "ASSET_OWNE": "DELWP", "HERITAGE_V": "No", "MGA_ZONE": "55", "MGA_EASTIN": 537679.0, "MGA_NORTHI": 5894939.0 }, "geometry": { "type": "Point", "coordinates": [ 147.423979079999981, -37.091086019999977 ] } },
{ "type": "Feature", "properties": { "PARK_NAME": "Mount Lawson State Park", "PARK_ID": 3344.0, "SITE_NAME": "_Not Attached to a Site", "ASSET_DESC": "Koetong Creek campsite No. 1", "ASSET_OWNE": "DELWP", "HERITAGE_V": "No", "MGA_ZONE": "55", "MGA_EASTIN": 540230.0, "MGA_NORTHI": 6005100.0 }, "geometry": { "type": "Point", "coordinates": [ 147.446918700999959, -36.097904281000012 ] } },
{ "type": "Feature", "properties": { "PARK_NAME": "Cape Conran Coastal Park", "PARK_ID": 3359.0, "SITE_NAME": "Binns Beach, Cape Conran Coastal Park", "ASSET_DESC": "Binns Beach - Campground", "ASSET_OWNE": "DELWP", "HERITAGE_V": "No", "MGA_ZONE": "55", "MGA_EASTIN": 669354.0, "MGA_NORTHI": 5816850.0 }, "geometry": { "type": "Point", "coordinates": [ 148.923098237999966, -37.780021895 ] } },
{ "type": "Feature", "properties": { "PARK_NAME": "Grant H.A.", "PARK_ID": 2924.0, "SITE_NAME": "Talbotville Historic Township, Grant H.A.", "ASSET_DESC": "Talbotville Township Campsites", "ASSET_OWNE": "DELWP", "HERITAGE_V": "No", "MGA_ZONE": "55", "MGA_EASTIN": 505900.0, "MGA_NORTHI": 5868000.0 }, "geometry": { "type": "Point", "coordinates": [ 147.066603119999968, -37.334655989999987 ] } },
{ "type": "Feature", "properties": { "PARK_NAME": "Alpine National Park", "PARK_ID": 3319.0, "SITE_NAME": "Rocky Plains Creek, Alpine National Park", "ASSET_DESC": "Rocky Plains Creek- Camping area", "ASSET_OWNE": "DELWP", "HERITAGE_V": "No", "MGA_ZONE": "55", "MGA_EASTIN": 602862.0, "MGA_NORTHI": 5912506.0 }, "geometry": { "type": "Point", "coordinates": [ 148.15495188, -36.927872009999987 ] } },
{ "type": "Feature", "properties": { "PARK_NAME": "Creswick R.P.", "PARK_ID": 3220.0, "SITE_NAME": "Slatey Creek Picnic Area No 3, Creswick R.P.", "ASSET_DESC": "Slatey Creek Picnic Area No 3", "ASSET_OWNE": "DELWP", "HERITAGE_V": "No", "MGA_ZONE": "54", "MGA_EASTIN": 757223.0, "MGA_NORTHI": 5849273.0 }, "geometry": { "type": "Point", "coordinates": [ 143.90850816, -37.467660959999989 ] } },
{ "type": "Feature", "properties": { "PARK_NAME": "Cathedral Range State Park", "PARK_ID": 3332.0, "SITE_NAME": "Sugarloaf Saddle Day Visitor Area, Cathedral Range State Park", "ASSET_DESC": "Day Visitor Area, Sugarloaf, CRSP", "ASSET_OWNE": "DELWP", "HERITAGE_V": "No", "MGA_ZONE": "55", "MGA_EASTIN": 390044.0, "MGA_NORTHI": 5858896.0 }, "geometry": { "type": "Point", "coordinates": [ 145.757526119999966, -37.410208020000027 ] } },
{ "type": "Feature", "properties": { "PARK_NAME": "Murray - Sunset National Park", "PARK_ID": 3320.0, "SITE_NAME": "Shearers Quarters, Murray - Sunset National Park", "ASSET_DESC": "Camping Grounds, Designated Sites, Shearers Quarters Campground MSNP", "ASSET_OWNE": "DELWP", "HERITAGE_V": "No", "MGA_ZONE": "54", "MGA_EASTIN": 506593.0, "MGA_NORTHI": 6175441.0 }, "geometry": { "type": "Point", "coordinates": [ 141.07187016, -34.562761019999982 ] } },
{ "type": "Feature", "properties": { "PARK_NAME": "Great Otway National Park", "PARK_ID": 4710.0, "SITE_NAME": null, "ASSET_DESC": "GOW Cape Otway Hike-in campsite -  Group Camp area\r\n", "ASSET_OWNE": "DELWP", "HERITAGE_V": null, "MGA_ZONE": "54", "MGA_EASTIN": 718204.0, "MGA_NORTHI": 5696895.0 }, "geometry": { "type": "Point", "coordinates": [ 143.514432426999974, -38.84972424599999 ] } },
{ "type": "Feature", "properties": { "PARK_NAME": "Great Otway National Park", "PARK_ID": 4710.0, "SITE_NAME": null, "ASSET_DESC": "GOW Cape Otway Hike-in campsite -  Camp pad no. 4\r\n", "ASSET_OWNE": "DELWP", "HERITAGE_V": null, "MGA_ZONE": "54", "MGA_EASTIN": 718229.0, "MGA_NORTHI": 5696925.0 }, "geometry": { "type": "Point", "coordinates": [ 143.514710735999984, -38.849447958999974 ] } },
{ "type": "Feature", "properties": { "PARK_NAME": "Croajingolong National Park", "PARK_ID": 3311.0, "SITE_NAME": "Mueller Camp, Croajingolong National Park", "ASSET_DESC": "Mueller Camping", "ASSET_OWNE": "DELWP", "HERITAGE_V": "No", "MGA_ZONE": "55", "MGA_EASTIN": 704654.0, "MGA_NORTHI": 5816390.0 }, "geometry": { "type": "Point", "coordinates": [ 149.323800176999953, -37.776943048000021 ] } },
{ "type": "Feature", "properties": { "PARK_NAME": "Alpine National Park", "PARK_ID": 3319.0, "SITE_NAME": "Langford West Camping Area, Alpine National Park", "ASSET_DESC": "Langford West Campground", "ASSET_OWNE": "DELWP", "HERITAGE_V": "No", "MGA_ZONE": "55", "MGA_EASTIN": 527000.0, "MGA_NORTHI": 5912790.0 }, "geometry": { "type": "Point", "coordinates": [ 147.303176040000039, -36.930540959999973 ] } },
{ "type": "Feature", "properties": { "PARK_NAME": "Lake Eildon National Park", "PARK_ID": 3294.0, "SITE_NAME": "Devil Cove, Lake Eildon National Park", "ASSET_DESC": "Devil Cove Camping Ground, LENP", "ASSET_OWNE": "DELWP", "HERITAGE_V": "No", "MGA_ZONE": "55", "MGA_EASTIN": 397011.0, "MGA_NORTHI": 5885305.0 }, "geometry": { "type": "Point", "coordinates": [ 145.839897, -37.173007980000023 ] } },
{ "type": "Feature", "properties": { "PARK_NAME": "Mount Eccles National Park", "PARK_ID": 3304.0, "SITE_NAME": "Mt Eccles, Mount Eccles National Park", "ASSET_DESC": "Campground - Mt Eccles", "ASSET_OWNE": "DELWP", "HERITAGE_V": "No", "MGA_ZONE": "54", "MGA_EASTIN": 580974.0, "MGA_NORTHI": 5787245.0 }, "geometry": { "type": "Point", "coordinates": [ 141.92301204, -38.058924960000013 ] } },
{ "type": "Feature", "properties": { "PARK_NAME": "Great Otway National Park", "PARK_ID": 4710.0, "SITE_NAME": "_Not Attached to a Site", "ASSET_DESC": "Parker Hill Camp Ground", "ASSET_OWNE": "DELWP", "HERITAGE_V": "No", "MGA_ZONE": "54", "MGA_EASTIN": 722031.0, "MGA_NORTHI": 5697119.0 }, "geometry": { "type": "Point", "coordinates": [ 143.55841896000004, -38.846750040000018 ] } },
{ "type": "Feature", "properties": { "PARK_NAME": "Wilsons Promontory National Park", "PARK_ID": 3308.0, "SITE_NAME": "Stockyard Camp, Wilsons Promontory National Park", "ASSET_DESC": "Stock Yard Campground", "ASSET_OWNE": "DELWP", "HERITAGE_V": "No", "MGA_ZONE": "55", "MGA_EASTIN": 434717.0, "MGA_NORTHI": 5698602.0 }, "geometry": { "type": "Point", "coordinates": [ 146.247579, -38.85899301 ] } },
{ "type": "Feature", "properties": { "PARK_NAME": "Lake Eildon National Park", "PARK_ID": 3294.0, "SITE_NAME": "O'Toole Flat, Lake Eildon National Park", "ASSET_DESC": "O'Toole Flat Camping Ground", "ASSET_OWNE": "DELWP", "HERITAGE_V": "No", "MGA_ZONE": "55", "MGA_EASTIN": 410306.0, "MGA_NORTHI": 5866565.0 }, "geometry": { "type": "Point", "coordinates": [ 145.987374960000011, -37.343276010000011 ] } },
{ "type": "Feature", "properties": { "PARK_NAME": "Lower Glenelg National Park", "PARK_ID": 3300.0, "SITE_NAME": "Battersbys, Lower Glenelg National Park", "ASSET_DESC": "Battersbys campground", "ASSET_OWNE": "DELWP", "HERITAGE_V": "No", "MGA_ZONE": "54", "MGA_EASTIN": 514014.0, "MGA_NORTHI": 5788857.0 }, "geometry": { "type": "Point", "coordinates": [ 141.159720959999959, -38.047912020000012 ] } },
{ "type": "Feature", "properties": { "PARK_NAME": "Mount Samaria State Park", "PARK_ID": 3346.0, "SITE_NAME": "Camphora Campsite, Mount Samaria State Park", "ASSET_DESC": "Camphora Campsite", "ASSET_OWNE": "DELWP", "HERITAGE_V": "No", "MGA_ZONE": "55", "MGA_EASTIN": 418557.0, "MGA_NORTHI": 5917510.0 }, "geometry": { "type": "Point", "coordinates": [ 146.086050959999966, -36.884863979999977 ] } },
{ "type": "Feature", "properties": { "PARK_NAME": "Barmah National Park", "PARK_ID": 4882.0, "SITE_NAME": "_Not Attached to a Site", "ASSET_DESC": "Barmah Lakes Camp Ground 1", "ASSET_OWNE": "DELWP", "HERITAGE_V": "No", "MGA_ZONE": "55", "MGA_EASTIN": 315872.0, "MGA_NORTHI": 6018779.0 }, "geometry": { "type": "Point", "coordinates": [ 144.958246919999965, -35.958036960000015 ] } },
{ "type": "Feature", "properties": { "PARK_NAME": "Grampians National Park", "PARK_ID": 3316.0, "SITE_NAME": "First Wannon Remote Campground, Grampians National Park", "ASSET_DESC": "First Wannon Remote Campground", "ASSET_OWNE": "DELWP", "HERITAGE_V": "No", "MGA_ZONE": "54", "MGA_EASTIN": 640714.0, "MGA_NORTHI": 5868371.0 }, "geometry": { "type": "Point", "coordinates": [ 142.588121040000033, -37.320671969999978 ] } },
{ "type": "Feature", "properties": { "PARK_NAME": "Croajingolong National Park", "PARK_ID": 3311.0, "SITE_NAME": "Clinton Rocks, Croajingolong National Park", "ASSET_DESC": "Clinton Rocks Camping - Walkers Access", "ASSET_OWNE": "DELWP", "HERITAGE_V": "No", "MGA_ZONE": "55", "MGA_EASTIN": 693626.0, "MGA_NORTHI": 5816669.0 }, "geometry": { "type": "Point", "coordinates": [ 149.198591879999981, -37.776833010000018 ] } },
{ "type": "Feature", "properties": { "PARK_NAME": "Lower Glenelg National Park", "PARK_ID": 3300.0, "SITE_NAME": null, "ASSET_DESC": "Moleside Picnic Area", "ASSET_OWNE": "DELWP", "HERITAGE_V": "No", "MGA_ZONE": "54", "MGA_EASTIN": 523795.0, "MGA_NORTHI": 5788111.0 }, "geometry": { "type": "Point", "coordinates": [ 141.271222261000048, -38.054431030999979 ] } },
{ "type": "Feature", "properties": { "PARK_NAME": "Discovery Bay Coastal Park", "PARK_ID": 3360.0, "SITE_NAME": "_Not Attached to a Site", "ASSET_DESC": "White Sands Walkers Walkers Camp", "ASSET_OWNE": "DELWP", "HERITAGE_V": "No", "MGA_ZONE": "54", "MGA_EASTIN": 511481.0, "MGA_NORTHI": 5780980.0 }, "geometry": { "type": "Point", "coordinates": [ 141.130978880000043, -38.118940950000024 ] } },
{ "type": "Feature", "properties": { "PARK_NAME": "Alpine National Park", "PARK_ID": 3319.0, "SITE_NAME": "Fishermans Bend, Alpine National Park", "ASSET_DESC": "Fishermans Bend camping area", "ASSET_OWNE": "DELWP", "HERITAGE_V": "No", "MGA_ZONE": "55", "MGA_EASTIN": 593670.0, "MGA_NORTHI": 5973270.0 }, "geometry": { "type": "Point", "coordinates": [ 148.044335087000036, -36.381138324 ] } },
{ "type": "Feature", "properties": { "PARK_NAME": "Mount Samaria State Park", "PARK_ID": 3346.0, "SITE_NAME": "Spring Creek Sawmill Area, Mount Samaria State Park", "ASSET_DESC": "Spring Creek Sawmill Camping Area", "ASSET_OWNE": "DELWP", "HERITAGE_V": "No", "MGA_ZONE": "55", "MGA_EASTIN": 418586.0, "MGA_NORTHI": 5918989.0 }, "geometry": { "type": "Point", "coordinates": [ 146.086535160000039, -36.871535970000025 ] } },
{ "type": "Feature", "properties": { "PARK_NAME": "Peach Tree Creek Reserve", "PARK_ID": 4236.0, "SITE_NAME": "Peachtree Creek Reserve, Peach Tree Creek Reserve", "ASSET_DESC": "Peachtree Camping", "ASSET_OWNE": "Parks Victoria", "HERITAGE_V": "No", "MGA_ZONE": "55", "MGA_EASTIN": 688326.0, "MGA_NORTHI": 5820706.0 }, "geometry": { "type": "Point", "coordinates": [ 149.137403769, -37.741578882 ] } },
{ "type": "Feature", "properties": { "PARK_NAME": "River Murray Reserve", "PARK_ID": 3284.0, "SITE_NAME": "Indigo Falls, Baranduda R.P.", "ASSET_DESC": "Indi Bridge camping and picnic area", "ASSET_OWNE": "DELWP", "HERITAGE_V": "No", "MGA_ZONE": "55", "MGA_EASTIN": 592895.0, "MGA_NORTHI": 5989690.0 }, "geometry": { "type": "Point", "coordinates": [ 148.033740172999956, -36.233203562000028 ] } },
{ "type": "Feature", "properties": { "PARK_NAME": "Macleod Morass W.R.", "PARK_ID": 3654.0, "SITE_NAME": "MacLeod Morass, Macleod Morass W.R.", "ASSET_DESC": "Macleods Morass camping areas (x4)", "ASSET_OWNE": "DELWP", "HERITAGE_V": "No", "MGA_ZONE": "55", "MGA_EASTIN": 556428.0, "MGA_NORTHI": 5809347.0 }, "geometry": { "type": "Point", "coordinates": [ 147.641500080000014, -37.86159699000001 ] } },
{ "type": "Feature", "properties": { "PARK_NAME": "Lake Tyers S.P.", "PARK_ID": 3419.0, "SITE_NAME": "Trident Arm Picinc Area, Lake Tyers S.P.", "ASSET_DESC": "Trident Arm Campsites", "ASSET_OWNE": "DELWP", "HERITAGE_V": "No", "MGA_ZONE": "55", "MGA_EASTIN": 599899.0, "MGA_NORTHI": 5813194.0 }, "geometry": { "type": "Point", "coordinates": [ 148.135097879999989, -37.82320101 ] } },
{ "type": "Feature", "properties": { "PARK_NAME": "Alpine National Park", "PARK_ID": 3319.0, "SITE_NAME": "Dogmans Hut & Camping Area, Alpine National Park", "ASSET_DESC": "Dogmans Hut Campground", "ASSET_OWNE": "DELWP", "HERITAGE_V": "No", "MGA_ZONE": "55", "MGA_EASTIN": 601325.0, "MGA_NORTHI": 5955774.0 }, "geometry": { "type": "Point", "coordinates": [ 148.131956879999962, -36.53806203 ] } },
{ "type": "Feature", "properties": { "PARK_NAME": "Alpine National Park", "PARK_ID": 3319.0, "SITE_NAME": null, "ASSET_DESC": "Stony Creek camping and picnic area\r\n", "ASSET_OWNE": "DELWP", "HERITAGE_V": "No", "MGA_ZONE": "55", "MGA_EASTIN": 600750.0, "MGA_NORTHI": 5961520.0 }, "geometry": { "type": "Point", "coordinates": [ 148.12478464000003, -36.486331429000018 ] } },
{ "type": "Feature", "properties": { "PARK_NAME": "Little Desert National Park", "PARK_ID": 3298.0, "SITE_NAME": "Broughtons Waterhole, Little Desert National Park", "ASSET_DESC": "Campsites", "ASSET_OWNE": "DELWP", "HERITAGE_V": "No", "MGA_ZONE": "54", "MGA_EASTIN": 529886.0, "MGA_NORTHI": 5953064.0 }, "geometry": { "type": "Point", "coordinates": [ 141.334004879999952, -36.56739699000002 ] } },
{ "type": "Feature", "properties": { "PARK_NAME": "Howqua Hills H.A", "PARK_ID": 2923.0, "SITE_NAME": "Davons Flat, Howqua Hills H.A", "ASSET_DESC": "Davons Flat Campground and DVA", "ASSET_OWNE": "DELWP", "HERITAGE_V": "No", "MGA_ZONE": "55", "MGA_EASTIN": 442118.0, "MGA_NORTHI": 5883750.0 }, "geometry": { "type": "Point", "coordinates": [ 146.3478350399999, -37.190908980000017 ] } },
{ "type": "Feature", "properties": { "PARK_NAME": "Holey Plains State Park", "PARK_ID": 3334.0, "SITE_NAME": "Harrier Swamp, Holey Plains State Park", "ASSET_DESC": "Harrier Swamp Campground", "ASSET_OWNE": "DELWP", "HERITAGE_V": "No", "MGA_ZONE": "55", "MGA_EASTIN": 486509.0, "MGA_NORTHI": 5771038.0 }, "geometry": { "type": "Point", "coordinates": [ 146.845901880000042, -38.208517019999988 ] } },
{ "type": "Feature", "properties": { "PARK_NAME": "Lower Glenelg National Park", "PARK_ID": 3300.0, "SITE_NAME": "Skipworth Springs, Lower Glenelg National Park", "ASSET_DESC": "Skipworth Springs", "ASSET_OWNE": "DELWP", "HERITAGE_V": "No", "MGA_ZONE": "54", "MGA_EASTIN": 516703.0, "MGA_NORTHI": 5788354.0 }, "geometry": { "type": "Point", "coordinates": [ 141.190380428000026, -38.05239964399999 ] } },
{ "type": "Feature", "properties": { "PARK_NAME": "Snowy River National Park", "PARK_ID": 3313.0, "SITE_NAME": "Little River Junction, Snowy River National Park", "ASSET_DESC": "Little River Junction Camp Ground", "ASSET_OWNE": "DELWP", "HERITAGE_V": "No", "MGA_ZONE": "55", "MGA_EASTIN": 621923.0, "MGA_NORTHI": 5890752.0 }, "geometry": { "type": "Point", "coordinates": [ 148.372443281999949, -37.121641794000027 ] } },
{ "type": "Feature", "properties": { "PARK_NAME": "Lower Glenelg National Park", "PARK_ID": 3300.0, "SITE_NAME": "Pines Landing, Lower Glenelg National Park", "ASSET_DESC": "Pines Landing Canoe Camp", "ASSET_OWNE": "DELWP", "HERITAGE_V": "No", "MGA_ZONE": "54", "MGA_EASTIN": 523354.0, "MGA_NORTHI": 5790808.0 }, "geometry": { "type": "Point", "coordinates": [ 141.266107681999983, -38.030135168000015 ] } },
{ "type": "Feature", "properties": { "PARK_NAME": "Delegate River SS.R.", "PARK_ID": 2959.0, "SITE_NAME": "_Not Attached to a Site", "ASSET_DESC": "Delegate River Campground", "ASSET_OWNE": "DELWP", "HERITAGE_V": "No", "MGA_ZONE": "55", "MGA_EASTIN": 662209.0, "MGA_NORTHI": 5881839.0 }, "geometry": { "type": "Point", "coordinates": [ 148.827677089999952, -37.195828817 ] } },
{ "type": "Feature", "properties": { "PARK_NAME": "Lower Glenelg National Park", "PARK_ID": 3300.0, "SITE_NAME": "Moleside, Lower Glenelg National Park", "ASSET_DESC": "Moleside Canoe & Walkers Camp", "ASSET_OWNE": "DELWP", "HERITAGE_V": "No", "MGA_ZONE": "54", "MGA_EASTIN": 523565.0, "MGA_NORTHI": 5788121.0 }, "geometry": { "type": "Point", "coordinates": [ 141.268600352000021, -38.054346924000015 ] } },
{ "type": "Feature", "properties": { "PARK_NAME": "Grampians National Park", "PARK_ID": 3316.0, "SITE_NAME": null, "ASSET_DESC": "Unnamed campground alength Stony Creek Rd\r\n", "ASSET_OWNE": "DELWP", "HERITAGE_V": null, "MGA_ZONE": "54", "MGA_EASTIN": 631804.0, "MGA_NORTHI": 5884122.0 }, "geometry": { "type": "Point", "coordinates": [ 142.484805299999948, -37.180046222999977 ] } },
{ "type": "Feature", "properties": { "PARK_NAME": "River Murray Reserve", "PARK_ID": 3284.0, "SITE_NAME": "Bourkes Bend, Proposed Murray River Park (part)", "ASSET_DESC": "Camp Ground - Dead River Bend at - Bourkes Bend,  River Murray Reserve", "ASSET_OWNE": "DELWP", "HERITAGE_V": "No", "MGA_ZONE": "55", "MGA_EASTIN": 392329.0, "MGA_NORTHI": 6017281.0 }, "geometry": { "type": "Point", "coordinates": [ 145.80563337000001, -35.982970008999985 ] } },
{ "type": "Feature", "properties": { "PARK_NAME": "River Murray Reserve", "PARK_ID": 3284.0, "SITE_NAME": "Cobrawonga Island, River Murray Reserve", "ASSET_DESC": "Camping Grounds - Cobrawonga Island No. 2 at River Murray Reserve", "ASSET_OWNE": "DELWP", "HERITAGE_V": "No", "MGA_ZONE": "55", "MGA_EASTIN": 388888.0, "MGA_NORTHI": 6019363.0 }, "geometry": { "type": "Point", "coordinates": [ 145.767762804999961, -35.96381707099999 ] } },
{ "type": "Feature", "properties": { "PARK_NAME": "Grampians National Park", "PARK_ID": 3316.0, "SITE_NAME": null, "ASSET_DESC": "Long Point East Camp.\r\n", "ASSET_OWNE": null, "HERITAGE_V": null, "MGA_ZONE": "54", "MGA_EASTIN": 630596.0, "MGA_NORTHI": 5902556.0 }, "geometry": { "type": "Point", "coordinates": [ 142.467992004000052, -37.014101492 ] } },
{ "type": "Feature", "properties": { "PARK_NAME": "Cape Conran Coastal Park", "PARK_ID": 3359.0, "SITE_NAME": "Banksia Bluff Campground, Cape Conran Coastal Park", "ASSET_DESC": "Banksia Bluff (sites 56-75) Camping Area", "ASSET_OWNE": "DELWP", "HERITAGE_V": "No", "MGA_ZONE": "55", "MGA_EASTIN": 653633.0, "MGA_NORTHI": 5815307.0 }, "geometry": { "type": "Point", "coordinates": [ 148.744985411000016, -37.796700935999979 ] } },
{ "type": "Feature", "properties": { "PARK_NAME": "Great Otway National Park", "PARK_ID": 4710.0, "SITE_NAME": null, "ASSET_DESC": "GOW Johanna Hike-in Campsite - Camp pad no. 3\r\n", "ASSET_OWNE": "DELWP", "HERITAGE_V": null, "MGA_ZONE": "54", "MGA_EASTIN": 705933.0, "MGA_NORTHI": 5707435.0 }, "geometry": { "type": "Point", "coordinates": [ 143.369998298000041, -38.757780707999984 ] } },
{ "type": "Feature", "properties": { "PARK_NAME": "Great Otway National Park", "PARK_ID": 4710.0, "SITE_NAME": null, "ASSET_DESC": "GOW Ryans Den Hike-in Campsite - Camp pad no. 3\r\n", "ASSET_OWNE": "DELWP", "HERITAGE_V": null, "MGA_ZONE": "54", "MGA_EASTIN": 697938.0, "MGA_NORTHI": 5707422.0 }, "geometry": { "type": "Point", "coordinates": [ 143.278059822000046, -38.759726839 ] } },
{ "type": "Feature", "properties": { "PARK_NAME": "Great Otway National Park", "PARK_ID": 4710.0, "SITE_NAME": null, "ASSET_DESC": "GOW Elliot Ridge Hike-in Campsite - Camp pad no. 7\r\n", "ASSET_OWNE": "DELWP", "HERITAGE_V": null, "MGA_ZONE": "54", "MGA_EASTIN": 726950.0, "MGA_NORTHI": 5703160.0 }, "geometry": { "type": "Point", "coordinates": [ 143.613056167999957, -38.791112933000022 ] } },
{ "type": "Feature", "properties": { "PARK_NAME": "Alpine National Park", "PARK_ID": 3319.0, "SITE_NAME": "Dibbin Hut Camping Area, Alpine National Park", "ASSET_DESC": "Tent platform - 1 at Falls to Hotham Apline Crossing Dibbins Hut Camping Area with 3.7m x 3m steel structure with FRP grating deck\r\n", "ASSET_OWNE": "DELWP", "HERITAGE_V": null, "MGA_ZONE": "55", "MGA_EASTIN": 516300.0, "MGA_NORTHI": 5910800.0 }, "geometry": { "type": "Point", "coordinates": [ 147.183072388000028, -36.94872548799998 ] } },
{ "type": "Feature", "properties": { "PARK_NAME": "Great Otway National Park", "PARK_ID": 4710.0, "SITE_NAME": null, "ASSET_DESC": "GOW Elliot Ridge Hike-in Campsite - Camp pad no. 1\r\n", "ASSET_OWNE": "DELWP", "HERITAGE_V": null, "MGA_ZONE": "54", "MGA_EASTIN": 726926.0, "MGA_NORTHI": 5703192.0 }, "geometry": { "type": "Point", "coordinates": [ 143.612769580999952, -38.790831035999986 ] } },
{ "type": "Feature", "properties": { "PARK_NAME": "Alpine National Park", "PARK_ID": 3319.0, "SITE_NAME": "Dibbin Hut Camping Area, Alpine National Park", "ASSET_DESC": "Tent platform - 2 at Falls to Hotham Alpine Crossing Dibbins Hut camping area with 3.7m x 3m steel structure with FRP grating deck\r\n", "ASSET_OWNE": null, "HERITAGE_V": null, "MGA_ZONE": "55", "MGA_EASTIN": 516300.0, "MGA_NORTHI": 5910800.0 }, "geometry": { "type": "Point", "coordinates": [ 147.183072388000028, -36.94872548799998 ] } },
{ "type": "Feature", "properties": { "PARK_NAME": "Alpine National Park", "PARK_ID": 3319.0, "SITE_NAME": "Native Dog Flat, Alpine National Park", "ASSET_DESC": "Native Dog Flat Campground \/ Picnic Area", "ASSET_OWNE": "DELWP", "HERITAGE_V": "No", "MGA_ZONE": "55", "MGA_EASTIN": 596936.0, "MGA_NORTHI": 5915801.0 }, "geometry": { "type": "Point", "coordinates": [ 148.08800304, -36.898803 ] } },
{ "type": "Feature", "properties": { "PARK_NAME": "Buchan (AT) Cave Reserve", "PARK_ID": 5040.0, "SITE_NAME": null, "ASSET_DESC": "Buchan Caves Central Campground", "ASSET_OWNE": "Parks Victoria", "HERITAGE_V": "No", "MGA_ZONE": "55", "MGA_EASTIN": 602887.0, "MGA_NORTHI": 5849579.0 }, "geometry": { "type": "Point", "coordinates": [ 148.163911920000032, -37.494983970000021 ] } },
{ "type": "Feature", "properties": { "PARK_NAME": "Alpine National Park", "PARK_ID": 3319.0, "SITE_NAME": "The Poplars Camping Area, Alpine National Park", "ASSET_DESC": "The Poplars Camping Area", "ASSET_OWNE": "DELWP", "HERITAGE_V": "No", "MGA_ZONE": "55", "MGA_EASTIN": 598601.0, "MGA_NORTHI": 5929236.0 }, "geometry": { "type": "Point", "coordinates": [ 148.104943919999982, -36.77754096000001 ] } },
{ "type": "Feature", "properties": { "PARK_NAME": "Murray - Sunset National Park", "PARK_ID": 3320.0, "SITE_NAME": "Pink Lakes - Lake Becking campground, Murray - Sunset National Park", "ASSET_DESC": "Designated Sites, Lake Becking", "ASSET_OWNE": "Parks Victoria", "HERITAGE_V": "No", "MGA_ZONE": "54", "MGA_EASTIN": 565276.0, "MGA_NORTHI": 6122411.0 }, "geometry": { "type": "Point", "coordinates": [ 141.715672919999975, -35.03888199 ] } },
{ "type": "Feature", "properties": { "PARK_NAME": "Murray - Sunset National Park", "PARK_ID": 3320.0, "SITE_NAME": "Mt. Crozier Campground, Murray - Sunset National Park", "ASSET_DESC": "Designated Site, Mt Crozier Camping area - Murray-Sunset NP", "ASSET_OWNE": "Parks Victoria", "HERITAGE_V": "No", "MGA_ZONE": "54", "MGA_EASTIN": 564460.0, "MGA_NORTHI": 6136755.0 }, "geometry": { "type": "Point", "coordinates": [ 141.70561704, -34.909596990000011 ] } },
{ "type": "Feature", "properties": { "PARK_NAME": "Grampians National Park", "PARK_ID": 3316.0, "SITE_NAME": "Jimmy Creek Campground, Grampians National Park", "ASSET_DESC": "Designated sites at Jimmy Creek", "ASSET_OWNE": "DELWP", "HERITAGE_V": "No", "MGA_ZONE": "54", "MGA_EASTIN": 633128.0, "MGA_NORTHI": 5862842.0 }, "geometry": { "type": "Point", "coordinates": [ 142.503525, -37.371609990000024 ] } },
{ "type": "Feature", "properties": { "PARK_NAME": "Alpine National Park", "PARK_ID": 3319.0, "SITE_NAME": "JB Plain Hut and Camping Area, Alpine National Park", "ASSET_DESC": "JB Plain Hut Camping Area", "ASSET_OWNE": "DELWP", "HERITAGE_V": "No", "MGA_ZONE": "55", "MGA_EASTIN": 519900.0, "MGA_NORTHI": 5902300.0 }, "geometry": { "type": "Point", "coordinates": [ 147.223730159999945, -37.025278019999973 ] } },
{ "type": "Feature", "properties": { "PARK_NAME": "Alpine National Park", "PARK_ID": 3319.0, "SITE_NAME": "Bogong Creek Huts (2), Alpine National Park", "ASSET_DESC": "Bogong Creek Huts Camping Area", "ASSET_OWNE": "DELWP", "HERITAGE_V": "No", "MGA_ZONE": "55", "MGA_EASTIN": 522600.0, "MGA_NORTHI": 5931200.0 }, "geometry": { "type": "Point", "coordinates": [ 147.253223159999948, -36.764697959999978 ] } },
{ "type": "Feature", "properties": { "PARK_NAME": "Howqua Hills H.A", "PARK_ID": 2923.0, "SITE_NAME": "Blackbird Flat, Howqua Hills H.A", "ASSET_DESC": "Blackbird Flat Campground", "ASSET_OWNE": "DELWP", "HERITAGE_V": "No", "MGA_ZONE": "55", "MGA_EASTIN": 441723.0, "MGA_NORTHI": 5883014.0 }, "geometry": { "type": "Point", "coordinates": [ 146.343327840000029, -37.197518039999977 ] } },
{ "type": "Feature", "properties": { "PARK_NAME": "Creswick R.P.", "PARK_ID": 3220.0, "SITE_NAME": "Eatons Dam, Creswick R.P.", "ASSET_DESC": "Eatons Dam Camping Grounds", "ASSET_OWNE": "DELWP", "HERITAGE_V": "No", "MGA_ZONE": "54", "MGA_EASTIN": 759246.0, "MGA_NORTHI": 5851827.0 }, "geometry": { "type": "Point", "coordinates": [ 143.930457, -37.444104990000028 ] } },
{ "type": "Feature", "properties": { "PARK_NAME": "Heathcote-Graytown National Park", "PARK_ID": 4493.0, "SITE_NAME": "Dargile, Heathcote-Graytown National Park", "ASSET_DESC": "Campground - Dargile camp area Heathcote-Graytown NP", "ASSET_OWNE": "DELWP", "HERITAGE_V": "No", "MGA_ZONE": "55", "MGA_EASTIN": 298824.0, "MGA_NORTHI": 5919185.0 }, "geometry": { "type": "Point", "coordinates": [ 144.743523119999963, -36.851855039999975 ] } },
{ "type": "Feature", "properties": { "PARK_NAME": "Cape Conran Coastal Park", "PARK_ID": 3359.0, "SITE_NAME": "Gunnia Beach, Cape Conran Coastal Park", "ASSET_DESC": "Gunnia Beach - Campground", "ASSET_OWNE": "DELWP", "HERITAGE_V": "No", "MGA_ZONE": "55", "MGA_EASTIN": 668736.0, "MGA_NORTHI": 5816767.0 }, "geometry": { "type": "Point", "coordinates": [ 148.916103462000024, -37.780883882000012 ] } },
{ "type": "Feature", "properties": { "PARK_NAME": "Alpine National Park", "PARK_ID": 3319.0, "SITE_NAME": null, "ASSET_DESC": "Wellington River Camp Campground 2 Boobook.", "ASSET_OWNE": "DELWP", "HERITAGE_V": "No", "MGA_ZONE": "55", "MGA_EASTIN": 466600.0, "MGA_NORTHI": 5843500.0 }, "geometry": { "type": "Point", "coordinates": [ 146.621853, -37.55490597 ] } },
{ "type": "Feature", "properties": { "PARK_NAME": "Lake Ratzcastle L.R.", "PARK_ID": 3095.0, "SITE_NAME": "Lake Ratzcastle Lake Reserve, Lake Ratzcastle L.R.", "ASSET_DESC": "Lake Ratzcastle camping area", "ASSET_OWNE": "DELWP", "HERITAGE_V": "No", "MGA_ZONE": "54", "MGA_EASTIN": 541560.0, "MGA_NORTHI": 5925889.0 }, "geometry": { "type": "Point", "coordinates": [ 141.465945383999951, -36.811932319999983 ] } },
{ "type": "Feature", "properties": { "PARK_NAME": "Murray - Sunset National Park", "PARK_ID": 3320.0, "SITE_NAME": "Border campground, Murray - Sunset National Park", "ASSET_DESC": "Camping Grounds, Designated Sites, Pheenys Track, Border Campground MSNP", "ASSET_OWNE": "Parks Victoria", "HERITAGE_V": "No", "MGA_ZONE": "54", "MGA_EASTIN": 497227.0, "MGA_NORTHI": 6159622.0 }, "geometry": { "type": "Point", "coordinates": [ 140.96971908, -34.70543397 ] } },
{ "type": "Feature", "properties": { "PARK_NAME": "Alpine National Park", "PARK_ID": 3319.0, "SITE_NAME": null, "ASSET_DESC": "Hairpin Bend camping and picnic area\r\n", "ASSET_OWNE": "DELWP", "HERITAGE_V": "No", "MGA_ZONE": "55", "MGA_EASTIN": 593570.0, "MGA_NORTHI": 5974670.0 }, "geometry": { "type": "Point", "coordinates": [ 148.043051830999957, -36.368528632999983 ] } },
{ "type": "Feature", "properties": { "PARK_NAME": "Mount Mitta Mitta F.R.", "PARK_ID": 206.0, "SITE_NAME": "_Not Attached to a Site", "ASSET_DESC": "Mt Mittamatite Summit picnic area", "ASSET_OWNE": "DELWP", "HERITAGE_V": "No", "MGA_ZONE": "55", "MGA_EASTIN": 577490.0, "MGA_NORTHI": 5999310.0 }, "geometry": { "type": "Point", "coordinates": [ 147.861381487000017, -36.147841065000023 ] } },
{ "type": "Feature", "properties": { "PARK_NAME": "Great Otway National Park", "PARK_ID": 4710.0, "SITE_NAME": null, "ASSET_DESC": "GOW Devils Kitchen - Camp pad no. 1\r\n", "ASSET_OWNE": "DELWP", "HERITAGE_V": null, "MGA_ZONE": "54", "MGA_EASTIN": 691607.0, "MGA_NORTHI": 5709335.0 }, "geometry": { "type": "Point", "coordinates": [ 143.204717401000039, -38.743897302999983 ] } },
{ "type": "Feature", "properties": { "PARK_NAME": "Great Otway National Park", "PARK_ID": 4710.0, "SITE_NAME": "_Not Attached to a Site", "ASSET_DESC": "blanket Bay Camping Area", "ASSET_OWNE": "DELWP", "HERITAGE_V": "No", "MGA_ZONE": "54", "MGA_EASTIN": 724234.0, "MGA_NORTHI": 5699122.0 }, "geometry": { "type": "Point", "coordinates": [ 143.583127920000038, -38.82816 ] } },
{ "type": "Feature", "properties": { "PARK_NAME": "Wilsons Promontory National Park", "PARK_ID": 3308.0, "SITE_NAME": "Johnny Souey Cove, Wilsons Promontory Marine Park", "ASSET_DESC": "Johnny Souey Campground", "ASSET_OWNE": "DELWP", "HERITAGE_V": "No", "MGA_ZONE": "55", "MGA_EASTIN": 455144.0, "MGA_NORTHI": 5694992.0 }, "geometry": { "type": "Point", "coordinates": [ 146.482764069000041, -38.89280254099998 ] } },
{ "type": "Feature", "properties": { "PARK_NAME": "Wilsons Promontory National Park", "PARK_ID": 3308.0, "SITE_NAME": "Roaring Meg, Wilsons Promontory National Park", "ASSET_DESC": "Roaring Meg Campground", "ASSET_OWNE": "DELWP", "HERITAGE_V": "No", "MGA_ZONE": "55", "MGA_EASTIN": 446952.0, "MGA_NORTHI": 5670206.0 }, "geometry": { "type": "Point", "coordinates": [ 146.38637988000005, -39.11568804 ] } },
{ "type": "Feature", "properties": { "PARK_NAME": "Mount Samaria State Park", "PARK_ID": 3346.0, "SITE_NAME": "Samaria Well, Mount Samaria State Park", "ASSET_DESC": "Samaria Well Camping Area", "ASSET_OWNE": "DELWP", "HERITAGE_V": "No", "MGA_ZONE": "55", "MGA_EASTIN": 416475.0, "MGA_NORTHI": 5924145.0 }, "geometry": { "type": "Point", "coordinates": [ 146.06341992, -36.82487799 ] } },
{ "type": "Feature", "properties": { "PARK_NAME": "Holey Plains State Park", "PARK_ID": 3334.0, "SITE_NAME": "Holey Hill, Holey Plains State Park", "ASSET_DESC": "Holey Hill Camping Area", "ASSET_OWNE": "DELWP", "HERITAGE_V": "No", "MGA_ZONE": "55", "MGA_EASTIN": 494614.0, "MGA_NORTHI": 5768451.0 }, "geometry": { "type": "Point", "coordinates": [ 146.93846004, -38.231917020000026 ] } },
{ "type": "Feature", "properties": { "PARK_NAME": "Grampians National Park", "PARK_ID": 3316.0, "SITE_NAME": "Smiths Mill Campground, Grampians National Park", "ASSET_DESC": "Smiths Mill Campground", "ASSET_OWNE": "DELWP", "HERITAGE_V": "No", "MGA_ZONE": "54", "MGA_EASTIN": 626507.0, "MGA_NORTHI": 5892203.0 }, "geometry": { "type": "Point", "coordinates": [ 142.423785, -37.107957960000022 ] } },
{ "type": "Feature", "properties": { "PARK_NAME": "Alpine National Park", "PARK_ID": 3319.0, "SITE_NAME": "Roper Hut Camping Area, Alpine National Park", "ASSET_DESC": "Roper Hut Camping Area", "ASSET_OWNE": "DELWP", "HERITAGE_V": "No", "MGA_ZONE": "55", "MGA_EASTIN": 529400.0, "MGA_NORTHI": 5925900.0 }, "geometry": { "type": "Point", "coordinates": [ 147.329616959999953, -36.81228897 ] } },
{ "type": "Feature", "properties": { "PARK_NAME": "Mount Beckworth S.R.", "PARK_ID": 2724.0, "SITE_NAME": "Bracken Gully Picnic Area, Mount Beckworth S.R.", "ASSET_DESC": "Bracken Gully Picnic Area", "ASSET_OWNE": "DELWP", "HERITAGE_V": "No", "MGA_ZONE": "54", "MGA_EASTIN": 740312.0, "MGA_NORTHI": 5867426.0 }, "geometry": { "type": "Point", "coordinates": [ 143.711595, -37.30876803000001 ] } },